,station_id,name,lat,lon,capacity,stationCode_x,rental_methods,timestamp,datetime,stationCode_y,num_bikes_available,numBikesAvailable,num_docks_available,numDocksAvailable,is_installed,is_returning,is_renting,last_reported,mechanical_available,ebike_available
0,213688169,Benjamin Godard - Victor Hugo,48.865983,2.275725,35,16107,,1587409260.0,2020-04-20 21:01:00,16107,5,5,30,30,1,1,1,1587408365,3,2
1,99950133,André Mazet - Saint-André des Arts,48.85375581057431,2.3390958085656166,55,6015,['CREDITCARD'],1587409260.0,2020-04-20 21:01:00,6015,16,16,36,36,1,1,1,1587408505,16,0
2,516709288,Charonne - Robert et Sonia Delauney,48.85590755596891,2.3925706744194035,20,11104,,1587409260.0,2020-04-20 21:01:00,11104,9,9,11,11,1,1,1,1587408416,6,3
3,36255,Toudouze - Clauzel,48.87929591733507,2.3373600840568547,21,9020,['CREDITCARD'],1587409260.0,2020-04-20 21:01:00,9020,17,17,4,4,1,1,1,1587408427,13,4
4,37815204,Mairie du 12ème,48.84085531176338,2.3875549435615544,30,12109,,1587409260.0,2020-04-20 21:01:00,12109,6,6,24,24,1,1,1,1587408695,5,1
5,100769544,Harpe - Saint-Germain,48.85151881501689,2.343670316040516,45,5001,['CREDITCARD'],1587409260.0,2020-04-20 21:01:00,5001,15,15,30,30,1,1,1,1587408710,12,3
6,85002689,Jourdan - Stade Charléty,48.81942833336948,2.343335375189781,60,14014,['CREDITCARD'],1587409260.0,2020-04-20 21:01:00,14014,12,12,48,48,1,1,1,1587408495,7,5
7,54000559,Jouffroy d'Abbans - Wagram,48.881973298351625,2.301132157444954,40,17026,['CREDITCARD'],1587409260.0,2020-04-20 21:01:00,17026,17,17,23,23,1,1,1,1587408675,10,7
8,85043758,Guersant - Gouvion-Saint-Cyr,48.88287775178599,2.287667370814871,39,17041,['CREDITCARD'],1587409260.0,2020-04-20 21:01:00,17041,24,24,15,15,1,1,1,1587408542,19,5
9,123095125,Alibert - Jemmapes,48.8710440519842,2.366104461987773,60,10013,['CREDITCARD'],1587409260.0,2020-04-20 21:01:00,10013,4,4,56,56,1,1,1,1587408676,4,0
10,129026597,Caumartin - Provence,48.874422773426545,2.3284685611724854,22,9104,['CREDITCARD'],1587409260.0,2020-04-20 21:01:00,9104,10,10,12,12,1,1,1,1587408359,9,1
11,251039991,Cassini - Denfert-Rochereau,48.83752583906732,2.336035408079624,25,14111,['CREDITCARD'],1587409260.0,2020-04-20 21:01:00,14111,0,0,25,25,1,1,1,1587391435,0,0
12,37874517,Saint-Sulpice,48.85165383178419,2.3308077827095985,21,6003,['CREDITCARD'],1587409260.0,2020-04-20 21:01:00,6003,11,11,10,10,1,1,1,1587408648,10,1
13,66491398,Le Brun - Gobelins,48.835092787823875,2.353468135133752,48,13007,['CREDITCARD'],1587409260.0,2020-04-20 21:01:00,13007,20,20,27,27,1,1,1,1587408687,13,7
14,210403080,Lacépède - Monge,48.84389286531899,2.3519663885235786,23,5110,['CREDITCARD'],1587409260.0,2020-04-20 21:01:00,5110,5,5,18,18,1,1,1,1587408516,1,4
15,210561800,Saint-Romain - Cherche-Midi,48.84708159081946,2.321374788880348,17,6108,,1587409260.0,2020-04-20 21:01:00,6108,17,17,0,0,1,1,1,1587408671,15,2
16,209063434,André Karman - République,48.91039875761846,2.3851355910301213,31,33006,,1587409260.0,2020-04-20 21:01:00,33006,14,14,18,18,1,1,1,1587408564,3,11
17,94555589,Pierre et Marie Curie - Maurice Thorez,48.81580226360801,2.376804985105991,27,42016,,1587409260.0,2020-04-20 21:01:00,42016,15,15,12,12,1,1,1,1587408641,7,8
18,244498842,Bois de Vincennes - Gare,48.836022242886884,2.4708339950830287,50,41301,['CREDITCARD'],1587409260.0,2020-04-20 21:01:00,41301,28,28,22,22,1,1,1,1587408620,26,2
19,43195240,Silly - Galliéni,48.835583838705936,2.2325500845909123,25,21010,['CREDITCARD'],1587409260.0,2020-04-20 21:01:00,21010,5,5,20,20,1,1,1,1587408232,3,2
20,210405211,Beaux-Arts - Bonaparte,48.856451985395786,2.334851883351803,20,6021,['CREDITCARD'],1587409260.0,2020-04-20 21:01:00,6021,6,6,15,15,1,1,1,1587408236,6,0
21,501862076,Place Nelson Mandela ,48.862090937689715,2.196576297283173,22,25006,['CREDITCARD'],1587409260.0,2020-04-20 21:01:00,25006,6,6,16,16,1,1,1,1587408693,3,3
22,437597018,Invalides - Duroc,48.8477924732952,2.3161920905113225,29,7001,['CREDITCARD'],1587409260.0,2020-04-20 21:01:00,7001,14,14,15,15,1,1,1,1587408683,13,1
23,207633746,Grande Armée - Brunel,48.876116,2.288124,62,17038,['CREDITCARD'],1587409260.0,2020-04-20 21:01:00,17038,7,7,55,55,1,1,1,1587408657,2,5
24,210566542,Square Boucicaut,48.851296433665276,2.325061820447445,60,7003,['CREDITCARD'],1587409260.0,2020-04-20 21:01:00,7003,4,4,56,56,1,1,1,1587408564,4,0
25,312165511,Faubourg Du Temple - Republique,48.867872484748744,2.3648982158072323,38,11037,['CREDITCARD'],1587409260.0,2020-04-20 21:01:00,11037,32,32,7,7,1,1,1,1587408677,30,2
26,210738704,Mazagran - Bonne Nouvelle,48.870278,2.351281,25,10105,['CREDITCARD'],1587409260.0,2020-04-20 21:01:00,10105,0,0,25,25,1,0,0,1581905135,0,0
27,210397939,Thouin - Cardinal Lemoine,48.84504716661511,2.3494647851273465,17,5016,,1587409260.0,2020-04-20 21:01:00,5016,2,2,15,15,1,1,1,1587408581,2,0
28,82405965,Froment - Bréguet,48.8570414504784,2.37289470306807,43,11025,['CREDITCARD'],1587409260.0,2020-04-20 21:01:00,11025,19,19,24,24,1,1,1,1587408485,17,2
29,213682736,Morillons - Dantzig,48.83310149953933,2.299380004405976,52,15047,,1587409260.0,2020-04-20 21:01:00,15047,7,7,46,46,1,1,1,1587408250,4,3
30,80101533,Chazelles - Courcelles ,48.879406604954,2.3034455627202988,35,17025,['CREDITCARD'],1587409260.0,2020-04-20 21:01:00,17025,6,6,29,29,1,1,1,1587408621,2,4
31,54000581,Croulebarde - Corvisart,48.830981659316855,2.3481646925210953,34,13101,['CREDITCARD'],1587409260.0,2020-04-20 21:01:00,13101,23,23,11,11,1,1,1,1587408698,20,3
32,599135701,Ramponeau - Belleville,48.871031137596006,2.3790568521139748,44,20143,['CREDITCARD'],1587409260.0,2020-04-20 21:01:00,20143,8,8,36,36,1,1,1,1587408422,3,5
33,13105968,Le Brix et Mesmin - Jourdan,48.82234096593411,2.327861653302471,21,14108,,1587409260.0,2020-04-20 21:01:00,14108,5,5,16,16,1,1,1,1587408673,0,5
34,653208733,Romainville - Vaillant-Couturier,48.86785,2.446748,38,31024,,1587409260.0,2020-04-20 21:01:00,31024,4,4,34,34,1,1,1,1587408270,1,3
35,907054879,Liberté - Vert-de-Maisons,48.79014780960843,2.43286281824112,20,47007,['CREDITCARD'],1587409260.0,2020-04-20 21:01:00,47007,11,11,9,9,1,1,1,1587408640,8,3
36,129094535,Porte de Saint-Ouen - Bessières,48.89792240854517,2.32851451022192,42,17044,,1587409260.0,2020-04-20 21:01:00,17044,1,1,41,41,1,1,1,1587408506,0,1
37,2254322638,Verdun - Pierre et Marie Curie,48.81273885275313,2.3707932870538655,0,42027,,1587409260.0,2020-04-20 21:01:00,42027,0,0,0,0,0,0,0,1568624870,0,0
38,27415224,Bir Hakeim,48.853844054333514,2.289705348222022,33,15026,['CREDITCARD'],1587409260.0,2020-04-20 21:01:00,15026,33,33,0,0,1,1,1,1587408701,31,2
39,499303158,Jules Guesde - Pont du Port à l'Anglais,48.79628807093802,2.417212128639221,30,44017,['CREDITCARD'],1587409260.0,2020-04-20 21:01:00,44017,12,12,18,18,1,1,1,1587408187,9,3
40,54000612,Cambrai - Benjamin Constant,48.89594736851349,2.381133802246315,43,19033,,1587409260.0,2020-04-20 21:01:00,19033,1,1,42,42,1,1,1,1587408211,1,0
41,88230992,De Toqueville - Terrasse,48.882428,2.314002,30,17048,['CREDITCARD'],1587409260.0,2020-04-20 21:01:00,17048,22,22,7,7,1,1,1,1587408577,18,4
42,27415302,Michel-Ange - Parent de Rosan,48.840579923690115,2.2584119439125065,26,16118,,1587409260.0,2020-04-20 21:01:00,16118,16,16,10,10,1,1,1,1587408649,14,2
43,102747146,Lagny - Victor Basch,48.84884147189881,2.426325418925233,26,43002,['CREDITCARD'],1587409260.0,2020-04-20 21:01:00,43002,8,8,18,18,1,1,1,1587408324,5,3
44,653132534,Louis Lejeune - Barbès,48.81807418981508,2.3267009854316716,25,21216,,1587409260.0,2020-04-20 21:01:00,21216,7,7,17,17,1,1,1,1587408313,4,3
45,506455295,Général Martial Valin - Pont du Garigliano,48.83823094269141,2.270506024360657,16,15068,,1587409260.0,2020-04-20 21:01:00,15068,3,3,13,13,1,1,1,1587408311,2,1
46,1057149522,Rond-point du Dr Albert Schweitzer,48.78980918988166,2.3143940046429634,22,22207,,1587409260.0,2020-04-20 21:01:00,22207,19,19,3,3,1,1,1,1587408515,6,13
47,101740379,Boulard - Daguerre,48.83442367825087,2.3294589668512344,45,14036,['CREDITCARD'],1587409260.0,2020-04-20 21:01:00,14036,15,15,30,30,1,1,1,1587408524,9,6
48,128986726,Boétie - Ponthieu,48.871417284354834,2.307678759098053,33,8050,['CREDITCARD'],1587409260.0,2020-04-20 21:01:00,8050,14,14,19,19,1,1,1,1587408233,12,2
49,653197324,Théâtre des Amandiers - Palais des sports,48.89264852683893,2.2136941552162175,24,92002,,1587409260.0,2020-04-20 21:01:00,92002,9,9,15,15,1,1,1,1587408655,3,6
50,210408693,Vaugirard - Monsieur le Prince,48.848951441614176,2.3411329463124275,26,6029,['CREDITCARD'],1587409260.0,2020-04-20 21:01:00,6029,6,6,20,20,1,1,1,1587408553,2,4
51,42950839,Serrurier,48.8804934032465,2.39806417375803,18,19027,,1587409260.0,2020-04-20 21:01:00,19027,0,0,18,18,1,1,1,1587408646,0,0
52,85123644,Pyrénées - Ménilmontant,48.8693268535238,2.395084574818611,26,20035,,1587409260.0,2020-04-20 21:01:00,20035,6,6,20,20,1,1,1,1587408645,3,3
53,210567545,Raspail - Varenne,48.85314781654488,2.3263905197381973,18,7004,,1587409260.0,2020-04-20 21:01:00,7004,2,2,16,16,1,1,1,1587408672,1,1
54,85008390,Grenelle - Dr Finlay,48.851315406715976,2.2919502854347233,71,15028,['CREDITCARD'],1587409260.0,2020-04-20 21:01:00,15028,0,0,71,71,1,0,0,1584321982,0,0
55,27414512,Caire - Dussoubs,48.86785342111862,2.349364310503006,40,2017,,1587409260.0,2020-04-20 21:01:00,2017,4,4,36,36,1,1,1,1587408483,1,3
56,210580039,Tour d'Auvergne - Rodier,48.879161,2.343698,17,9008,,1587409260.0,2020-04-20 21:01:00,9008,2,2,15,15,1,1,1,1587408133,1,1
57,128940135,Marceau - Chaillot,48.86883394989261,2.2989967837929726,21,8048,,1587409260.0,2020-04-20 21:01:00,8048,2,2,19,19,1,1,1,1587408320,0,2
58,35149611,Liard - Amiral Mouchez,48.8214169,2.342167,14,14013,['CREDITCARD'],1587409260.0,2020-04-20 21:01:00,14013,11,11,3,3,1,1,1,1587408651,4,7
59,210570888,Las Cases - Bourgogne,48.85909110474066,2.3185685276985173,22,7011,,1587409260.0,2020-04-20 21:01:00,7011,6,6,16,16,1,1,1,1587408653,4,2
60,129107656,Félix Ziem - Armand Gauthier,48.88949630486821,2.333393658804396,25,18111,,1587409260.0,2020-04-20 21:01:00,18111,3,3,22,22,1,1,1,1587408362,0,3
61,129088667,Jonquière - Docteur Paul Brousse,48.894799816683985,2.318705212173216,40,17010,['CREDITCARD'],1587409260.0,2020-04-20 21:01:00,17010,19,19,21,21,1,1,1,1587408691,16,3
62,214114469,Gare de Nogent-le-Perreux,48.83842553348809,2.493693307042122,32,41303,,1587409260.0,2020-04-20 21:01:00,41303,27,27,2,2,1,1,1,1587408650,3,24
63,1057228658,Youri Gagarine - Karl Marx,48.78448485079149,2.35908430069685,22,48003,,1587409260.0,2020-04-20 21:01:00,48003,11,11,11,11,1,1,1,1587408697,4,7
64,230873471,Octave Feuillet - Albéric Magnard,48.86106902949534,2.2730283066630363,21,16110,,1587409260.0,2020-04-20 21:01:00,16110,8,8,13,13,1,1,1,1587408396,4,4
65,507934805,Ney - Porte de Clignancourt ,48.8978867,2.3458001,25,18134,,1587409260.0,2020-04-20 21:01:00,18134,7,7,18,18,1,1,1,1587408718,3,4
66,205047993,Edgar Quinet - Raspail,48.83940266673835,2.32971478253603,46,14002,['CREDITCARD'],1587409260.0,2020-04-20 21:01:00,14002,2,2,44,44,1,1,1,1587408467,0,2
67,7254,Gay Lussac - Saint-Jacques,48.844730256132095,2.341923944866407,24,5005,,1587409260.0,2020-04-20 21:01:00,5005,8,8,16,16,1,1,1,1587408581,7,1
68,129164969,Place Jean-Spire-Lemaître,48.8468428626593,2.452062070369721,50,43009,['CREDITCARD'],1587409260.0,2020-04-20 21:01:00,43009,14,14,37,37,1,1,1,1587408689,8,6
69,128989986,Place Georges Guillaumin,48.874750203956566,2.301771435325988,29,8053,,1587409260.0,2020-04-20 21:01:00,8053,6,6,23,23,1,1,1,1587408555,5,1
70,129004826,Bellefond - Poissonnière,48.87759897050706,2.348463758826256,17,9001,['CREDITCARD'],1587409260.0,2020-04-20 21:01:00,9001,0,0,17,17,1,1,1,1587408685,0,0
71,518825709,Jean Oestreicher - Porte de Champerret,48.88655580065981,2.288640439510346,21,17032,,1587409260.0,2020-04-20 21:01:00,17032,7,7,14,14,1,1,1,1587408711,6,1
72,128930462,Square Louis XVI,48.87320440102894,2.323658830743138,29,8016,['CREDITCARD'],1587409260.0,2020-04-20 21:01:00,8016,7,7,22,22,1,1,1,1587408238,2,5
73,911767210,Alexandre Parodi - Quai de Valmy,48.87935941942529,2.366596162319184,24,10162,['CREDITCARD'],1587409260.0,2020-04-20 21:01:00,10162,6,6,18,18,1,1,1,1587408719,4,2
74,54000565,Granges aux Belles,48.8761373390584,2.3680844979417,27,10115,,1587409260.0,2020-04-20 21:01:00,10115,13,13,14,14,1,1,1,1587408675,4,9
75,1057296253,Regnault - Patay,48.82435782216384,2.377065159380436,63,13118,,1587409260.0,2020-04-20 21:01:00,13118,47,47,16,16,1,1,1,1587408521,39,8
76,210581084,Gare Saint-Lazare - Place de Budapest,48.877753,2.327339,44,9035,['CREDITCARD'],1587409260.0,2020-04-20 21:01:00,9035,2,2,42,42,1,1,1,1587408451,0,2
77,210585225,Dunkerque - Alsace,48.879355,2.358379,18,10027,,1587409260.0,2020-04-20 21:01:00,10027,8,8,10,10,1,1,1,1587408682,4,4
78,102311820,Clignancourt - Ordener,48.891457726153774,2.348636478060487,35,18024,['CREDITCARD'],1587409260.0,2020-04-20 21:01:00,18024,7,7,28,28,1,1,1,1587408269,5,2
79,210586093,Dunkerque - Rocroy,48.880726,2.351464,24,10029,,1587409260.0,2020-04-20 21:01:00,10029,5,5,19,19,1,1,1,1587408590,2,3
80,128887067,Ségur - d'Estrées,48.85141997898257,2.3097044974565506,19,7018,,1587409260.0,2020-04-20 21:01:00,7018,4,4,15,15,1,1,1,1587408565,2,2
81,210574471,Abbeville - Faubourg Poissonnière,48.879223,2.349147,14,9002,['CREDITCARD'],1587409260.0,2020-04-20 21:01:00,9002,6,6,8,8,1,1,1,1587408444,2,4
82,72765603,Boulangers - Cardinal Lemoine,48.8462904,2.3521495,20,5022,['CREDITCARD'],1587409260.0,2020-04-20 21:01:00,5022,4,4,15,15,1,1,1,1587408429,4,0
83,210582921,Boudreau - Auber,48.87219,2.329423,14,9106,,1587409260.0,2020-04-20 21:01:00,9106,10,10,4,4,1,1,1,1587408665,10,0
84,55927887,Gabriel Lamé,48.8351212784276,2.385534569621086,36,12031,['CREDITCARD'],1587409260.0,2020-04-20 21:01:00,12031,17,17,19,19,1,1,1,1587408510,12,5
85,369644630,Gare de l'Est - Faubourg-Saint-Martin,48.87564264747718,2.3594588041305546,32,10161,['CREDITCARD'],1587409260.0,2020-04-20 21:01:00,10161,4,4,28,28,1,1,1,1587408615,1,3
86,43255030,Pereire - Ternes,48.87973954830735,2.288012132048607,48,17040,['CREDITCARD'],1587409260.0,2020-04-20 21:01:00,17040,6,6,42,42,1,1,1,1587408324,4,2
87,129025451,Douai - Bruxelles,48.88320784122797,2.3308449949028507,27,9038,,1587409260.0,2020-04-20 21:01:00,9038,1,1,26,26,1,1,1,1587408372,0,1
88,128889359,Champ de Mars - Cler,48.856691550115315,2.306646779179573,41,7020,['CREDITCARD'],1587409260.0,2020-04-20 21:01:00,7020,26,26,15,15,1,1,1,1587408500,24,2
89,128920403,Gare Saint-Lazare - Isly,48.874777677621296,2.326515804784655,27,8009,['CREDITCARD'],1587409260.0,2020-04-20 21:01:00,8009,17,17,10,10,1,1,1,1587408689,16,1
90,323616530,Quai de l'Horloge - Pont Neuf,48.857058739111096,2.341798283943937,17,1001,['CREDITCARD'],1587409260.0,2020-04-20 21:01:00,1001,13,13,4,4,1,1,1,1587408393,9,4
91,208795867,Ambroise Rendu - Porte Brunet,48.883667,2.395733,17,19105,,1587409260.0,2020-04-20 21:01:00,19105,8,8,9,9,1,1,1,1587408474,3,5
92,457813746,Henri Barbusse - Stalingrad,48.814580710238836,2.2875300049781804,16,22409,['CREDITCARD'],1587409260.0,2020-04-20 21:01:00,22409,4,4,12,12,1,1,1,1587408551,2,2
93,6296,Institut de France,48.85761567856468,2.335831353037739,17,6001,['CREDITCARD'],1587409260.0,2020-04-20 21:01:00,6001,12,12,5,5,1,1,1,1587408385,9,3
94,27414601,Saint-François-Xavier,48.851544847689894,2.3146149516105656,42,7014,['CREDITCARD'],1587409260.0,2020-04-20 21:01:00,7014,17,17,24,24,1,1,1,1587408721,17,0
95,521393180,Porte Pouchet-Bessières,48.8978765,2.3230632,23,17008,,1587409260.0,2020-04-20 21:01:00,17008,8,8,15,15,1,1,1,1587408213,2,6
96,576188379,Vigée-Lebrun - Anselme Payen,48.838683941628375,2.3110422492027287,24,15112,,1587409260.0,2020-04-20 21:01:00,15112,6,6,18,18,1,1,1,1587408595,4,2
97,128882438,Institut du Monde Arabe - Saint-Germain,48.84906329950134,2.3558086529374123,40,5020,['CREDITCARD'],1587409260.0,2020-04-20 21:01:00,5020,21,21,19,19,1,1,1,1587408497,19,2
98,128915891,Octave Gréard - Tour Eiffel,48.856502977695634,2.293178754328878,33,7025,['CREDITCARD'],1587409260.0,2020-04-20 21:01:00,7025,7,7,26,26,1,1,1,1587408234,5,2
99,82567101,Château - République,48.8629238005955,2.415503561496735,26,31706,,1587409260.0,2020-04-20 21:01:00,31706,6,6,20,20,1,1,1,1587408219,3,3
100,129021753,Moncey - Blanche,48.88006587474148,2.3310810327529907,17,9028,,1587409260.0,2020-04-20 21:01:00,9028,9,9,8,8,1,1,1,1587408174,4,5
101,210740080,Gare du Nord - Hôpital Lariboisière,48.881949,2.352339,49,10107,,1587409260.0,2020-04-20 21:01:00,10107,0,0,49,49,1,1,1,1587408665,0,0
102,35642049,Jemmapes - Ecluses Saint-Martin ,48.87748519186726,2.3660067468881607,15,10025,['CREDITCARD'],1587409260.0,2020-04-20 21:01:00,10025,10,10,5,5,1,1,1,1587408641,8,2
103,50191171,Thionville - Ourcq,48.88917613743794,2.3833653330802917,24,19015,['CREDITCARD'],1587409260.0,2020-04-20 21:01:00,19015,3,3,21,21,1,1,1,1587408568,0,3
104,102290754,Mairie du 17ème,48.88416184871573,2.322079431103719,24,17012,,1587409260.0,2020-04-20 21:01:00,17012,1,1,23,23,1,1,1,1587408539,0,1
105,3906153622,Argenteuil - Voltaire,48.91864865955558,2.2814112156629562,16,26003,,1587409260.0,2020-04-20 21:01:00,26003,10,10,6,6,1,1,1,1587408594,5,5
106,129087587,Legendre - Clichy,48.88896161855884,2.322528975094376,40,17004,['CREDITCARD'],1587409260.0,2020-04-20 21:01:00,17004,10,10,31,31,1,1,1,1587408620,7,3
107,213693511,Quai de la Seine,48.884492238407525,2.3703941702842717,24,19003,['CREDITCARD'],1587409260.0,2020-04-20 21:01:00,19003,6,6,18,18,1,1,1,1587408216,0,6
108,82379648,Lisbonne - Monceau,48.87745567681383,2.309694221419506,33,8036,['CREDITCARD'],1587409260.0,2020-04-20 21:01:00,8036,14,14,19,19,1,1,1,1587408225,7,7
109,95845524,Cité Riverin - Château d'Eau ,48.870702423554306,2.358739863900845,18,10008,['CREDITCARD'],1587409260.0,2020-04-20 21:01:00,10008,6,6,12,12,1,1,1,1587408645,3,3
110,37815993,Mutualité,48.8482255727241,2.350287325680256,37,5018,['CREDITCARD'],1587409260.0,2020-04-20 21:01:00,5018,37,37,0,0,1,1,1,1587408664,35,2
111,230877798,Chartres - La Charbonnière,48.8847601,2.3534657,34,18107,,1587409260.0,2020-04-20 21:01:00,18107,3,3,31,31,1,1,1,1587408559,1,2
112,66491397,Gare de Lyon - Place Louis Armand,48.8455150897939,2.3726498446286,60,12151,['CREDITCARD'],1587409260.0,2020-04-20 21:01:00,12151,47,47,13,13,1,1,1,1587408694,44,3
113,2515995748,Pesaro - Préfecture,48.89577046284005,2.223908342421055,22,92007,['CREDITCARD'],1587409260.0,2020-04-20 21:01:00,92007,8,8,14,14,1,1,1,1587408450,3,5
114,129014600,Rossini - Laffitte,48.87334627510507,2.337980867701675,33,9022,,1587409260.0,2020-04-20 21:01:00,9022,16,16,17,17,1,1,1,1587408708,16,0
115,102324803,Pyrénées - Emmery,48.872010281270974,2.392039597034455,40,20042,,1587409260.0,2020-04-20 21:01:00,20042,4,4,36,36,1,1,1,1587408579,0,4
116,54000569,Saint-Ambroise - Parmentier,48.86214784454763,2.3772348091006275,38,11027,['CREDITCARD'],1587409260.0,2020-04-20 21:01:00,11027,17,17,21,21,1,1,1,1587408665,5,12
117,80216231,Belidor - Gouvion-Saint-Cyr,48.88022154052015,2.2854680567979813,40,17043,['CREDITCARD'],1587409260.0,2020-04-20 21:01:00,17043,11,11,29,29,1,1,1,1587408253,7,4
118,336511521,Place de Rhin et Danube,48.88192765861766,2.392586767673493,17,19026,,1587409260.0,2020-04-20 21:01:00,19026,2,2,15,15,1,1,1,1587408388,0,2
119,129043651,Roquette - Thiéré,48.85507930579506,2.3733686318721463,23,11002,['CREDITCARD'],1587409260.0,2020-04-20 21:01:00,11002,11,11,12,12,1,1,1,1587408593,8,3
120,82562556,Exelmans - Versailles,48.84097491091973,2.264390252530575,49,16039,['CREDITCARD'],1587409260.0,2020-04-20 21:01:00,16039,20,20,29,29,1,1,1,1587408701,13,7
121,129048000,Saint-Maur - Roquette,48.858688774062955,2.383553994571467,46,11023,['CREDITCARD'],1587409260.0,2020-04-20 21:01:00,11023,13,13,33,33,1,1,1,1587408597,8,5
122,1062250686,11 Novembre 1918 - 8 Mai 1945,48.80889533774377,2.5382421165704727,36,45003,,1587409260.0,2020-04-20 21:01:00,45003,10,10,26,26,1,1,1,1587408686,8,2
123,261987383,Place Du Général De Gaulle,48.8687591,2.4329931,26,31009,,1587409260.0,2020-04-20 21:01:00,31009,3,3,23,23,1,1,1,1587408294,1,2
124,813544903,Amelot - Saint-Sébastien,48.86114216276092,2.367799618107727,30,11047,,1587409260.0,2020-04-20 21:01:00,11047,24,24,6,6,1,1,1,1587408696,20,4
125,126050442,Pereire - Rennequin,48.88364782887555,2.2952447086572647,23,17030,['CREDITCARD'],1587409260.0,2020-04-20 21:01:00,17030,3,3,20,20,1,1,1,1587408663,1,2
126,27363489,Claude Decaen - Cannebière,48.83761417037952,2.397253782195704,27,12111,,1587409260.0,2020-04-20 21:01:00,12111,13,13,14,14,1,1,1,1587408535,4,9
127,39296638,Berri - Haussmann,48.874746047357135,2.3082953318953514,35,8034,,1587409260.0,2020-04-20 21:01:00,8034,10,10,25,25,1,1,1,1587408499,7,3
128,210753033,Gare d'Austerlitz,48.842524,2.364044,14,13014,['CREDITCARD'],1587409260.0,2020-04-20 21:01:00,13014,12,12,2,2,1,1,1,1587408514,10,2
129,101763163,Desaix - Edgar Faure,48.852804604940296,2.293077029857222,12,15067,['CREDITCARD'],1587409260.0,2020-04-20 21:01:00,15067,10,10,2,2,1,1,1,1587408398,4,6
130,205938683,Delphine Seyrig - Général Leclerc,48.893923963057865,2.39790290594101,53,19043,,1587409260.0,2020-04-20 21:01:00,19043,7,7,45,45,1,1,1,1587408217,5,2
131,210399835,Panthéon - Valette,48.84702057165222,2.3464982619671075,39,5032,,1587409260.0,2020-04-20 21:01:00,5032,2,2,37,37,1,1,1,1587408399,1,1
132,1057324291,Cimetière de Montrouge,48.822009,2.322188699,58,14020,,1587409260.0,2020-04-20 21:01:00,14020,22,22,35,35,1,1,1,1587408678,1,21
133,314829539,Charles de Gaulle - Beauté,48.83649602312711,2.479562651149885,49,41302,['CREDITCARD'],1587409260.0,2020-04-20 21:01:00,41302,13,13,36,36,1,1,1,1587408557,3,10
134,129034587,Récollets - Square Villemin,48.875034655883944,2.359801238597928,17,10016,,1587409260.0,2020-04-20 21:01:00,10016,2,2,15,15,1,1,1,1587408615,2,0
135,653133605,Gare RER - Canadiens,48.81995307955795,2.464176752459464,45,43401,['CREDITCARD'],1587409260.0,2020-04-20 21:01:00,43401,26,26,19,19,1,1,1,1587408425,22,4
136,3906094706,Redoute - Les Courtilles,48.92986719451888,2.283669635653496,32,26002,,1587409260.0,2020-04-20 21:01:00,26002,20,20,6,6,1,1,1,1587408723,7,13
137,27414578,Notre-Dame-des-Champs - Stanislas,48.84479928858768,2.329337755887181,19,6006,['CREDITCARD'],1587409260.0,2020-04-20 21:01:00,6006,3,3,16,16,1,1,1,1587408531,1,2
138,34742973,Place Balard,48.836395736424116,2.2784192115068436,22,15056,['CREDITCARD'],1587409260.0,2020-04-20 21:01:00,15056,9,9,13,13,1,1,1,1587408430,9,0
139,508042092,Pyramide - Ecole du Breuil ,48.82237977153955,2.4586871266365056,34,12128,,1587409260.0,2020-04-20 21:01:00,12128,17,17,17,17,1,1,1,1587408719,16,1
140,42603855,Liège - Moscou,48.8795431,2.3264628,17,8010,,1587409260.0,2020-04-20 21:01:00,8010,0,0,17,17,1,1,1,1587408550,0,0
141,818302209,Mairie de Montreuil,48.86131452758348,2.440614402294159,52,31022,['CREDITCARD'],1587409260.0,2020-04-20 21:01:00,31022,8,8,44,44,1,1,1,1587408645,5,3
142,13718041,Square Simon Bolivar,48.8750898883217,2.3826304078102116,24,19101,,1587409260.0,2020-04-20 21:01:00,19101,4,4,20,20,1,1,1,1587408544,1,3
143,210741164,Jemmapes - Grange aux Belles,48.873462,2.364035,23,10111,['CREDITCARD'],1587409260.0,2020-04-20 21:01:00,10111,15,15,8,8,1,1,1,1587408641,11,4
144,265464297,Schoelcher - Raspail,48.83681733526843,2.3312794080411474,50,14003,['CREDITCARD'],1587409260.0,2020-04-20 21:01:00,14003,7,7,43,43,1,1,1,1587408404,3,4
145,102309973,Cimetière de Montmartre,48.886472466141925,2.3328901827335358,43,18003,['CREDITCARD'],1587409260.0,2020-04-20 21:01:00,18003,7,7,36,36,1,1,1,1587408397,3,4
146,532054446,Richard Lenoir - Republique,48.8667175,2.3692541,58,11113,['CREDITCARD'],1587409260.0,2020-04-20 21:01:00,11113,13,13,45,45,1,1,1,1587408636,10,3
147,586539770,Marne - Germain Dardan,48.81154270401601,2.303070724010468,22,21212,['CREDITCARD'],1587409260.0,2020-04-20 21:01:00,21212,1,1,21,21,1,1,1,1587408591,0,1
148,583539396,Anatole France - President Roosevelt,48.9155156,2.3814103,30,33017,['CREDITCARD'],1587409260.0,2020-04-20 21:01:00,33017,25,25,5,5,1,1,1,1587408553,17,8
149,101753100,Henry Farman,48.83372430280548,2.2713854536414146,16,15042,,1587409260.0,2020-04-20 21:01:00,15042,6,6,10,10,1,1,1,1587408586,4,2
150,27415466,Jourdain - Place des Grandes Rigoles,48.87403113727167,2.38959476351738,22,20112,['CREDITCARD'],1587409260.0,2020-04-20 21:01:00,20112,5,5,17,17,1,1,1,1587408332,2,3
151,88140066,Rocher - Laborde,48.87590240712654,2.322616316378116,65,8017,['CREDITCARD'],1587409260.0,2020-04-20 21:01:00,8017,10,10,54,54,1,1,1,1587408723,8,2
152,66491385,Fontenay - Libération,48.84780306364685,2.445141971111298,25,43008,,1587409260.0,2020-04-20 21:01:00,43008,10,10,15,15,1,1,1,1587408526,5,5
153,52393,Grands Moulins de Pantin,48.89738369720229,2.3959985375404362,50,19044,,1587409260.0,2020-04-20 21:01:00,19044,10,10,40,40,1,1,1,1587408592,7,3
154,42517412,Gambetta - Saint Fargeau,48.871244610447015,2.4039056897163396,24,20037,,1587409260.0,2020-04-20 21:01:00,20037,2,2,22,22,1,1,1,1587408487,0,2
155,596813170,Cimetière,48.84706173362218,2.4787822365760808,15,41209,,1587409260.0,2020-04-20 21:01:00,41209,12,12,3,3,1,1,1,1587408285,1,11
156,209057581,Gabriel Péri - Francisco Ferrer,48.88633710236977,2.407338917255402,18,33102,,1587409260.0,2020-04-20 21:01:00,33102,9,9,11,11,1,1,1,1587408327,4,5
157,66491389,Place de la Reine Astrid,48.86492098253841,2.302549182385926,58,8045,['CREDITCARD'],1587409260.0,2020-04-20 21:01:00,8045,16,16,42,42,1,1,1,1587408627,7,9
158,596872103,Lucie Aubrac - Fort,48.818144834008976,2.271184623241425,30,21312,['CREDITCARD'],1587409260.0,2020-04-20 21:01:00,21312,4,4,27,27,1,1,1,1587408698,1,3
159,81081358,Pajol - Place Herbert,48.8927825,2.3635598,39,18011,['CREDITCARD'],1587409260.0,2020-04-20 21:01:00,18011,6,6,33,33,1,1,1,1587408437,1,5
160,210749865,Port-Royal - Hôpital du Val-de-Grâce,48.8376682728114,2.344813834660711,18,13001,['CREDITCARD'],1587409260.0,2020-04-20 21:01:00,13001,8,8,10,10,1,1,1,1587408487,5,3
161,535500589,Hôpital Européen Georges Pompidou ,48.83769531916335,2.275374233722687,65,15104,,1587409260.0,2020-04-20 21:01:00,15104,11,11,54,54,1,1,1,1587408610,10,1
162,597245295,Concorde - Stalingrad,48.7985844,2.3821302,35,44006,['CREDITCARD'],1587409260.0,2020-04-20 21:01:00,44006,9,9,26,26,1,1,1,1587408396,6,3
163,235513935,Carducci - Place Hannah Arendt,48.877436681515796,2.3860743641853337,27,19120,,1587409260.0,2020-04-20 21:01:00,19120,0,0,26,26,1,1,1,1587408368,0,0
164,27206194,Saint-Jacques - Val de Grâce,48.8417514,2.3413893,20,5004,,1587409260.0,2020-04-20 21:01:00,5004,4,4,16,16,1,1,1,1587408721,2,2
165,102323152,Manin - Carrières d'Amérique,48.88467214209463,2.3919698596000676,20,19103,,1587409260.0,2020-04-20 21:01:00,19103,2,2,18,18,1,1,1,1587408612,0,2
166,3906215030,Place Amédée Gordini - Lefebvre,48.83061737745046,2.2920634208276174,0,15201,,1587409260.0,2020-04-20 21:01:00,15201,0,0,0,0,0,0,0,1580808748,0,0
167,129060764,Victor Hugo - Jeanne Jugan,48.843949064031825,2.415081394834419,28,12114,,1587409260.0,2020-04-20 21:01:00,12114,8,8,20,20,1,1,1,1587408496,3,5
168,828134511,Porte de Vanves,48.82801284944511,2.3056878894567485,32,14138,,1587409260.0,2020-04-20 21:01:00,14138,3,3,29,29,1,1,1,1587408479,2,1
169,586649404,Conservatoire de Musique,48.77093586667601,2.4034014344215398,25,46003,,1587409260.0,2020-04-20 21:01:00,46003,20,20,5,5,1,1,1,1587408568,7,13
170,76199461,Championnet - Vauvenargues,48.89401874744574,2.3319872841238976,33,18028,['CREDITCARD'],1587409260.0,2020-04-20 21:01:00,18028,8,8,25,25,1,1,1,1587408650,3,5
171,271426439,Buisson Saint-Louis - Saint-Maur,48.87174684930295,2.3722528328789854,19,10024,,1587409260.0,2020-04-20 21:01:00,10024,15,15,4,4,1,1,1,1587408440,10,5
172,213684314,Fédération - Suffren,48.852828153442346,2.2978776320815086,25,15105,['CREDITCARD'],1587409260.0,2020-04-20 21:01:00,15105,21,21,4,4,1,1,1,1587408591,20,1
173,27363187,Place Albert Kahn,48.8957969797804,2.345585584134864,46,18031,['CREDITCARD'],1587409260.0,2020-04-20 21:01:00,18031,12,12,35,35,1,1,1,1587408648,8,4
174,583171360,Jean Marin Naudin - Stalingrad,48.80598196931727,2.319646775722504,30,22202,['CREDITCARD'],1587409260.0,2020-04-20 21:01:00,22202,6,6,18,18,1,1,1,1587408704,2,4
175,3906335682,Redoute - Pierre de Coubertin,48.81465708183031,2.3612006310577276,0,42706,,1587409260.0,2020-04-20 21:01:00,42706,0,0,0,0,0,0,0,1580809865,0,0
176,230952057,Place Marcel Cachin,48.81411442356866,2.39090770483017,32,42014,['CREDITCARD'],1587409260.0,2020-04-20 21:01:00,42014,27,27,5,5,1,1,1,1587408475,21,6
177,213683101,Lecourbe - Jean Maridor,48.83796366147599,2.2877392172813416,19,15054,,1587409260.0,2020-04-20 21:01:00,15054,3,3,15,15,1,1,1,1587408689,2,1
178,213684750,Grenelle - Violet,48.84993035512154,2.294612042605877,35,15106,['CREDITCARD'],1587409260.0,2020-04-20 21:01:00,15106,17,17,18,18,1,1,1,1587408609,11,6
179,129067920,Mouton Duvernet - Général Leclerc,48.831632518292565,2.3293121159076686,39,14008,['CREDITCARD'],1587409260.0,2020-04-20 21:01:00,14008,3,3,36,36,1,1,1,1587408678,2,1
180,27364743,Marc Sangnier - Porte de Vanves,48.825218683556734,2.3107116669416428,21,14106,,1587409260.0,2020-04-20 21:01:00,14106,3,3,18,18,1,1,1,1587408375,1,2
181,102314792,Etienne Jodelle - Saint Ouen,48.88794016394694,2.326124420314341,33,18046,,1587409260.0,2020-04-20 21:01:00,18046,4,4,28,28,1,1,1,1587408585,1,3
182,102329800,Marcelin Berthelot,48.8415473058801,2.233161628246308,27,21006,,1587409260.0,2020-04-20 21:01:00,21006,19,19,8,8,1,1,1,1587408604,11,8
183,35447568,Guy Môquet - Etienne Dolet,48.81527009991819,2.298078276995073,23,22406,,1587409260.0,2020-04-20 21:01:00,22406,3,3,20,20,1,1,1,1587408575,2,1
184,27415736,Jean Jaurès - Presles,48.90713441498779,2.396005728053061,30,35002,['CREDITCARD'],1587409260.0,2020-04-20 21:01:00,35002,13,13,17,17,1,1,1,1587408575,5,8
185,583178525,Boissière - Etienne Dolet,48.876111,2.4677312,21,31102,,1587409260.0,2020-04-20 21:01:00,31102,4,4,17,17,1,1,1,1587408633,0,4
186,572566600,Edouard Tremblay - Julian Grimau,48.78138382511671,2.3723508417606354,30,44013,,1587409260.0,2020-04-20 21:01:00,44013,5,5,25,25,1,1,1,1587408659,1,4
187,82387816,Bertie Albrecht - Hoche,48.87614039826388,2.301303138307601,32,8054,['CREDITCARD'],1587409260.0,2020-04-20 21:01:00,8054,4,4,28,28,1,1,1,1587408658,3,1
188,213679512,Sibelle - Alésia,48.826701758539215,2.3384983465075493,25,14012,,1587409260.0,2020-04-20 21:01:00,14012,2,2,23,23,1,1,1,1587408237,1,1
189,213685090,Cevennes - Bergers,48.84240765130395,2.281037718057633,29,15109,['CREDITCARD'],1587409260.0,2020-04-20 21:01:00,15109,9,9,20,20,1,1,1,1587408618,7,2
190,301841024,Molière - République,48.81111581390707,2.3145738624448158,30,21209,,1587409260.0,2020-04-20 21:01:00,21209,8,8,22,22,1,1,1,1587408689,5,3
191,213676294,Chevaleret - Tolbiac,48.82941,2.375934,21,13053,['CREDITCARD'],1587409260.0,2020-04-20 21:01:00,13053,15,15,5,5,1,1,1,1587408665,12,3
192,85147829,Hôtel de Ville de Boulogne Billancourt,48.83495885166784,2.2416803240776066,26,21005,['CREDITCARD'],1587409260.0,2020-04-20 21:01:00,21005,11,11,15,15,1,1,1,1587408414,6,5
193,588452142,Hoche - Jean Lolive,48.89110239200789,2.402843534946442,24,35010,['CREDITCARD'],1587409260.0,2020-04-20 21:01:00,35010,10,10,14,14,1,1,1,1587408229,2,8
194,54000625,Repos - Cimetière du Père Lachaise,48.859358523592554,2.389613136684456,33,20131,['CREDITCARD'],1587409260.0,2020-04-20 21:01:00,20131,2,2,31,31,1,1,1,1587408264,1,1
195,213681356,David Weill - Parc Montsouris,48.821092374256104,2.333725690841675,22,14124,['CREDITCARD'],1587409260.0,2020-04-20 21:01:00,14124,1,1,21,21,1,1,1,1587408632,0,1
196,544249939,Raspail - Chomel,48.852233164303094,2.3266580700874333,49,7101,['CREDITCARD'],1587409260.0,2020-04-20 21:01:00,7101,13,13,36,36,1,1,1,1587408672,11,2
197,213685514,Place Robert Guillemard,48.836191728066666,2.2811267160086417,24,15110,,1587409260.0,2020-04-20 21:01:00,15110,11,11,13,13,1,1,1,1587408417,9,2
198,66491402,Marcadet - Barbès,48.89045112096476,2.349057392968696,37,18022,['CREDITCARD'],1587409260.0,2020-04-20 21:01:00,18022,3,3,34,34,1,1,1,1587408571,3,0
199,303695607,Pont-Neuf - Quai du Louvre,48.8582958982873,2.3423714563250546,30,1122,['CREDITCARD'],1587409260.0,2020-04-20 21:01:00,1122,0,0,0,0,1,0,0,1582976815,0,0
200,210565680,Vaneau - Sèvres,48.84856323305935,2.3204218259345537,35,7002,,1587409260.0,2020-04-20 21:01:00,7002,27,27,8,8,1,1,1,1587408673,21,6
201,129038848,Enghien - Faubourg Poissonnière,48.87242006305313,2.348395236282807,0,10042,,1587409260.0,2020-04-20 21:01:00,10042,0,0,0,0,1,0,0,1587408145,0,0
202,2515049357,Ulm - Louis Thuillier,48.84264375274712,2.3445946723222733,24,5124,,1587409260.0,2020-04-20 21:01:00,5124,0,0,23,23,1,1,1,1587408226,0,0
203,213911772,François Debergue - Croix de Chavaux,48.857421708072074,2.437578141689301,57,31008,['CREDITCARD'],1587409260.0,2020-04-20 21:01:00,31008,13,13,44,44,1,1,1,1587408659,4,9
204,129132870,Nationale - Place Jules Guesde,48.82753962462998,2.2416052222251897,23,21015,,1587409260.0,2020-04-20 21:01:00,21015,5,5,18,18,1,1,1,1587408626,4,1
205,620403530,Gabriel Péri - Danielle Casanova,48.790114,2.4025777,20,44003,['CREDITCARD'],1587409260.0,2020-04-20 21:01:00,44003,17,17,3,3,1,1,1,1587408171,9,8
206,624177860,Route de la Muette - Porte de Neuilly,48.8798926,2.2587671,50,16122,['CREDITCARD'],1587409260.0,2020-04-20 21:01:00,16122,13,13,37,37,1,1,1,1587408605,6,7
207,631773910,Carnot - Pâquerettes,48.79592939432515,2.4261841177940373,26,41404,,1587409260.0,2020-04-20 21:01:00,41404,18,18,8,8,1,1,1,1587408708,5,13
208,611152693,Tertres - Fontaine,48.787553654715644,2.306235730648041,28,22203,,1587409260.0,2020-04-20 21:01:00,22203,5,5,23,23,1,1,1,1587408457,1,4
209,235241110,Gare Rer de Fontenay sous Bois,48.8436279,2.4630465,62,41202,['CREDITCARD'],1587409260.0,2020-04-20 21:01:00,41202,39,39,23,23,1,1,1,1587408546,34,5
210,613737748,Raspail - Manufacture des Oeillets,48.8094458,2.3903009,32,42021,['CREDITCARD'],1587409260.0,2020-04-20 21:01:00,42021,20,20,12,12,1,1,1,1587408530,14,6
211,41498023,Oberkampf - République,48.8654533,2.3760261,24,11030,['CREDITCARD'],1587409260.0,2020-04-20 21:01:00,11030,14,14,10,10,1,1,1,1587408515,7,7
212,632007124,Lucie Aubrac - Franklin,48.86223916006812,2.4435862898826604,36,31016,['CREDITCARD'],1587409260.0,2020-04-20 21:01:00,31016,10,10,26,26,1,1,1,1587408413,6,4
213,632086890,Place de l'Eglise,48.791922819921815,2.395057752728462,28,44004,,1587409260.0,2020-04-20 21:01:00,44004,12,12,16,16,1,1,1,1587408702,6,6
214,213945171,Noisy le Sec - Jean-Baptiste Clément,48.87451538963655,2.415283620357514,22,31708,,1587409260.0,2020-04-20 21:01:00,31708,2,2,20,20,1,1,1,1587408261,0,2
215,463297497,Marcelle - Thalie,48.8835462,2.4137883,20,35020,['CREDITCARD'],1587409260.0,2020-04-20 21:01:00,35020,5,5,15,15,1,1,1,1587408354,3,2
216,213875650,Henri Ste-Claire Déville - Paul Héroult,48.892663,2.172411,24,25003,,1587409260.0,2020-04-20 21:01:00,25003,9,9,15,15,1,1,1,1587408507,4,5
217,245187072,Louis Lumière - Porte de Bagnolet,48.86431136000005,2.4105210229754443,20,20115,,1587409260.0,2020-04-20 21:01:00,20115,2,2,17,17,1,1,1,1587408596,1,1
218,129144878,Paris - Emile Zola,48.854898095789295,2.4186685681343083,30,31003,['CREDITCARD'],1587409260.0,2020-04-20 21:01:00,31003,9,9,21,21,1,1,1,1587408676,4,5
219,27415665,Jean Jaurès - Salvador Allende,48.821475594736775,2.3026576638221745,43,22402,,1587409260.0,2020-04-20 21:01:00,22402,4,4,40,40,1,1,1,1587408668,2,2
220,593238093,Victoire - Chaussée d'Antin,48.875065791004396,2.3316738009452824,24,9116,['CREDITCARD'],1587409260.0,2020-04-20 21:01:00,9116,15,15,8,8,1,1,1,1587408505,14,1
221,102331767,Victor Hugo - Galliéni,48.83802015441127,2.2460845112800603,34,21008,['CREDITCARD'],1587409260.0,2020-04-20 21:01:00,21008,19,19,15,15,1,1,1,1587408598,12,7
222,129093478,Place de la Porte de Champerret,48.88561741628322,2.290781411279206,28,17031,['CREDITCARD'],1587409260.0,2020-04-20 21:01:00,17031,11,11,17,17,1,1,1,1587408434,5,6
223,37791,Richard Lenoir - Jean-Pierre Timbaud,48.86580427668637,2.369337074966926,36,11039,['CREDITCARD'],1587409260.0,2020-04-20 21:01:00,11039,29,29,7,7,1,1,1,1587408637,22,7
224,50156117,Legendre - Dulong,48.885325169402904,2.316423766314984,23,17013,['CREDITCARD'],1587409260.0,2020-04-20 21:01:00,17013,5,5,18,18,1,1,1,1587408222,2,3
225,1062671597,Cossonnerie - Sébastopol,48.86132665908402,2.349419631063938,24,1119,,1587409260.0,2020-04-20 21:01:00,1119,14,14,10,10,1,1,1,1587408653,10,4
226,15462236,Galilée - Kléber,48.86741186571367,2.290781380114821,33,16008,['CREDITCARD'],1587409260.0,2020-04-20 21:01:00,16008,6,6,27,27,1,1,1,1587408526,1,5
227,1765749389,Karl Marx,48.784527937293184,2.3646667979455587,16,48010,['CREDITCARD'],1587409260.0,2020-04-20 21:01:00,48010,6,6,10,10,1,1,1,1587408703,2,4
228,523900881,Cité de la Musique,48.888796556487385,2.3925811931922163,60,19018,['CREDITCARD'],1587409260.0,2020-04-20 21:01:00,19018,0,0,60,60,1,0,0,1569390941,0,0
229,210744286,Chemin Vert - Saint-Maur,48.86112461407359,2.381299026310444,45,11026,['CREDITCARD'],1587409260.0,2020-04-20 21:01:00,11026,16,16,29,29,1,1,1,1587408513,7,9
230,101024234,Quai Panhard et Levassor,48.82837482809675,2.384273745805574,57,13050,['CREDITCARD'],1587409260.0,2020-04-20 21:01:00,13050,40,40,17,17,1,1,1,1587408616,33,7
231,213992316,Square du Théâtre du Garde-Chasse,48.881287375060616,2.420119643211365,50,32604,,1587409260.0,2020-04-20 21:01:00,32604,8,8,41,41,1,1,1,1587408698,1,7
232,213694482,Botzaris - Parc des Buttes Chaumont,48.877951,2.381464,20,19024,,1587409260.0,2020-04-20 21:01:00,19024,2,2,18,18,1,1,1,1587408362,0,2
233,39799329,Faubourg Montmartre - La Fayette,48.87525454905335,2.340853661298752,35,9014,['CREDITCARD'],1587409260.0,2020-04-20 21:01:00,9014,10,10,25,25,1,1,1,1587408182,9,1
234,129011497,Rochechouart lamartine,48.876719895109,2.344393021853951,24,9010,['CREDITCARD'],1587409260.0,2020-04-20 21:01:00,9010,10,10,14,14,1,1,1,1587408507,5,5
235,101743895,Joseph Liouville - Croix Nivert,48.844835471244416,2.297508493065834,64,15021,['CREDITCARD'],1587409260.0,2020-04-20 21:01:00,15021,34,34,30,30,1,1,1,1587408554,28,6
236,213691848,Place Madeleine Daniélou,48.883498,2.282015,42,17105,,1587409260.0,2020-04-20 21:01:00,17105,13,13,29,29,1,1,1,1587408707,10,3
237,210396518,Estrapade - Ulm,48.84512772828039,2.3454568170361734,16,5012,,1587409260.0,2020-04-20 21:01:00,5012,3,3,13,13,1,1,1,1587408572,0,3
238,97677210,Parmentier - République ,48.8644954,2.3750124,50,11105,['CREDITCARD'],1587409260.0,2020-04-20 21:01:00,11105,16,16,34,34,1,1,1,1587408642,8,8
239,875078767,Lieutenant Chauré - Etienne Marey,48.86746195408435,2.405970990657807,20,20134,['CREDITCARD'],1587409260.0,2020-04-20 21:01:00,20134,5,5,15,15,1,1,1,1587408237,0,5
240,1558958733,Léonard de Vinci,48.89790972494496,2.2383723043644914,28,24001,['CREDITCARD'],1587409260.0,2020-04-20 21:01:00,24001,10,10,18,18,1,1,1,1587408631,0,10
241,213857398,Gare de Clamart,48.81383535598703,2.272278964519501,14,21403,['CREDITCARD'],1587409260.0,2020-04-20 21:01:00,21403,7,7,7,7,1,1,1,1587408483,7,0
242,102338493,Larmeroux - Baudelaire,48.816939911291605,2.280989480484553,30,21701,,1587409260.0,2020-04-20 21:01:00,21701,12,12,18,18,1,1,1,1587408569,7,5
243,54000601,Jean-François Lépine - Stephenson,48.88611466796807,2.356855627529275,22,18009,['CREDITCARD'],1587409260.0,2020-04-20 21:01:00,18009,5,5,17,17,1,1,1,1587408586,4,1
244,35908,Cujas - Saint-Michel,48.84819134858432,2.34183165485398,19,5106,['CREDITCARD'],1587409260.0,2020-04-20 21:01:00,5106,4,4,15,15,1,1,1,1587408289,1,3
245,27362896,Beffroy,48.886591074487995,2.261394560337067,26,22003,['CREDITCARD'],1587409260.0,2020-04-20 21:01:00,22003,8,8,18,18,1,1,1,1587408708,6,2
246,213687140,Molitor - Chardon-Lagache,48.84520880183234,2.2656840831041336,34,16038,['CREDITCARD'],1587409260.0,2020-04-20 21:01:00,16038,14,14,20,20,1,1,1,1587408488,12,2
247,235599121,Général De Gaulle - Alouette,48.839109,2.4175664,26,41601,['CREDITCARD'],1587409260.0,2020-04-20 21:01:00,41601,9,9,16,16,1,1,1,1587408655,5,4
248,213680917,Abbé Carton - Plantes,48.827673823165846,2.320918142795563,25,14110,,1587409260.0,2020-04-20 21:01:00,14110,4,4,20,20,1,1,1,1587408169,4,0
249,1057774603,Marie-Georges Picquart - Pereire,48.88863669349711,2.3111706599593163,32,17125,,1587409260.0,2020-04-20 21:01:00,17125,5,5,27,27,1,1,1,1587408636,2,3
250,213688462,Sablons - Georges Mandel,48.863875,2.28189,38,16108,,1587409260.0,2020-04-20 21:01:00,16108,5,5,33,33,1,1,1,1587408489,2,3
251,102749572,Gare RER de Vincennes,48.847563015126106,2.433383166790009,51,43005,,1587409260.0,2020-04-20 21:01:00,43005,36,36,14,14,1,1,1,1587408722,31,5
252,549876068,Villette - Belleville,48.872687731400255,2.3764613270759587,48,19032,['CREDITCARD'],1587409260.0,2020-04-20 21:01:00,19032,4,4,44,44,1,1,1,1587408464,0,4
253,390212609,Théophile Gautier - François Millet,48.85034821320644,2.273029983043671,30,16136,,1587409260.0,2020-04-20 21:01:00,16136,23,23,7,7,1,1,1,1587408697,10,13
254,213936755,Edouard Vaillant - Galliéni,48.85846288166117,2.4147954583168034,49,31707,,1587409260.0,2020-04-20 21:01:00,31707,8,8,41,41,1,1,1,1587408584,6,2
255,63498079,Marché Secrétan,48.88125496379482,2.373463287949562,26,19022,['CREDITCARD'],1587409260.0,2020-04-20 21:01:00,19022,5,5,21,21,1,1,1,1587408153,2,3
256,213691542,Porte Maillot - Pereire,48.877775,2.284444,52,17042,['CREDITCARD'],1587409260.0,2020-04-20 21:01:00,17042,10,10,42,42,1,1,1,1587408642,6,4
257,2514995690,Chabanais - Petits Champs,48.867281,2.336729,0,2111,,1587409260.0,2020-04-20 21:01:00,2111,0,0,0,0,0,0,0,1570696474,0,0
258,39254792,Mairie du 11ème,48.858925,2.3789759,51,11024,['CREDITCARD'],1587409260.0,2020-04-20 21:01:00,11024,22,22,29,29,1,1,1,1587408713,15,7
259,2515802454,Charles de Gaulle - Sablonville,48.87991924860035,2.2763770446181297,26,22016,,1587409260.0,2020-04-20 21:01:00,22016,9,9,17,17,1,1,1,1587408433,6,3
260,648227675,Auguste Cain - Jean Moulin,48.82577028927573,2.3210415244102482,40,14136,,1587409260.0,2020-04-20 21:01:00,14136,1,1,39,39,1,1,1,1587408190,0,1
261,66491378,Lakanal - Commerce,48.84442462786544,2.294059172272682,53,15034,['CREDITCARD'],1587409260.0,2020-04-20 21:01:00,15034,24,24,26,26,1,1,1,1587408669,21,3
262,42566291,Miromesnil - La Boétie,48.87372241291653,2.315848097205162,35,8025,['CREDITCARD'],1587409260.0,2020-04-20 21:01:00,8025,10,10,25,25,1,1,1,1587408410,7,3
263,1062206433,Chemin Vert - Fraternité,48.877141208359035,2.4461565166711807,20,32302,,1587409260.0,2020-04-20 21:01:00,32302,3,3,17,17,1,1,1,1587408498,1,2
264,129032910,Marseille - Beaurepaire,48.871624306962985,2.3639265082738348,55,10014,,1587409260.0,2020-04-20 21:01:00,10014,38,38,17,17,1,1,1,1587408682,29,9
265,237624030,Mathurins - Auber,48.872988840743595,2.3294984212276404,36,9032,['CREDITCARD'],1587409260.0,2020-04-20 21:01:00,9032,18,18,18,18,1,1,1,1587408721,14,4
266,647826568,Saint-Germain - Thenard,48.850571,2.3471015,31,5123,['CREDITCARD'],1587409260.0,2020-04-20 21:01:00,5123,5,5,13,13,1,1,1,1587408690,4,1
267,54000577,Arago - Glacière,48.83486054775774,2.3445770524322067,27,13002,['CREDITCARD'],1587409260.0,2020-04-20 21:01:00,13002,16,16,11,11,1,1,1,1587408701,7,9
268,94250567,Mairie d'Ivry-sur-Seine,48.81057120969284,2.3842826485633855,53,42010,,1587409260.0,2020-04-20 21:01:00,42010,41,41,12,12,1,1,1,1587408654,33,8
269,129078200,Parc Georges Brassens - Brancion,48.83227829269761,2.3022570088505745,29,15046,['CREDITCARD'],1587409260.0,2020-04-20 21:01:00,15046,7,7,22,22,1,1,1,1587408135,6,1
270,1062162270,Théâtre,48.905768309295276,2.2353921022349748,20,22501,,1587409260.0,2020-04-20 21:01:00,22501,4,4,16,16,1,1,1,1587408649,2,2
271,54001024,Parmentier - Abel rabaud,48.86921273836114,2.371688821240712,53,11035,['CREDITCARD'],1587409260.0,2020-04-20 21:01:00,11035,8,8,45,45,1,1,1,1587408305,6,2
272,649888071,Place Paul Eluard,48.7672039733195,2.4144977331161503,19,46001,['CREDITCARD'],1587409260.0,2020-04-20 21:01:00,46001,9,9,9,9,1,1,1,1587408676,9,0
273,82563707,Exelmans - Michel-Ange,48.84309486651855,2.2597770800669053,33,16040,['CREDITCARD'],1587409260.0,2020-04-20 21:01:00,16040,12,12,21,21,1,1,1,1587408370,10,2
274,129143598,Pierret - Madrid,48.882976576876565,2.260125767248034,28,22006,['CREDITCARD'],1587409260.0,2020-04-20 21:01:00,22006,10,10,18,18,1,1,1,1587408481,6,4
275,213690847,Reims - Raymond Pitet,48.8888,2.296319,37,17028,,1587409260.0,2020-04-20 21:01:00,17028,5,5,32,32,1,1,1,1587408404,5,0
276,102333275,Saint-Vincent - Verdun,48.819211549234495,2.254007756710053,34,21301,,1587409260.0,2020-04-20 21:01:00,21301,14,14,20,20,1,1,1,1587408529,10,4
277,54000628,Claude Debussy - Marc Bloch,48.91038818051166,2.3117771744728093,28,21112,,1587409260.0,2020-04-20 21:01:00,21112,8,8,20,20,1,1,1,1587408614,5,3
278,640629438,Aristide Briand - Gare de Bagneux,48.79387269664978,2.321148812770844,22,42302,['CREDITCARD'],1587409260.0,2020-04-20 21:01:00,42302,10,10,12,12,1,1,1,1587408499,1,9
279,27415512,Parc Roger Salengro,48.905303858641844,2.310559451580048,36,21110,,1587409260.0,2020-04-20 21:01:00,21110,11,11,25,25,1,1,1,1587408703,5,6
280,27363362,Seine - Flandre,48.886785741479684,2.3746193200349808,19,19029,['CREDITCARD'],1587409260.0,2020-04-20 21:01:00,19029,2,2,17,17,1,1,1,1587408608,2,0
281,210746090,Grand Prieuré - Crussol,48.86466062793517,2.369226553182906,49,11042,,1587409260.0,2020-04-20 21:01:00,11042,30,30,19,19,1,1,1,1587408672,25,5
282,213957917,Wilson - Métallurgie,48.909423010092326,2.3584435880184174,28,32003,,1587409260.0,2020-04-20 21:01:00,32003,10,10,18,18,1,1,1,1587408555,5,5
283,54000626,Madame de Sanzillon - Mozart,48.90379820774301,2.3187401890754704,22,21104,['CREDITCARD'],1587409260.0,2020-04-20 21:01:00,21104,13,13,9,9,1,1,1,1587408338,10,3
284,6399,Hautpoul - Jean Jaurès,48.88639367943585,2.386541454435452,32,19016,['CREDITCARD'],1587409260.0,2020-04-20 21:01:00,19016,5,5,27,27,1,1,1,1587408695,1,4
285,27414841,Square d'Anvers,48.882633484310816,2.344884406212207,33,9005,['CREDITCARD'],1587409260.0,2020-04-20 21:01:00,9005,1,1,32,32,1,1,1,1587408302,0,1
286,82253759,Mairie du 7ème,48.8577967,2.3192664,27,7102,,1587409260.0,2020-04-20 21:01:00,7102,15,15,12,12,1,1,1,1587408651,14,1
287,82457375,Volontaire - Lecourbe,48.8435137879902,2.3065522313117985,31,15013,['CREDITCARD'],1587409260.0,2020-04-20 21:01:00,15013,31,31,0,0,1,1,1,1587408317,26,5
288,54000609,Laumière - Petit,48.88467368538326,2.380039058625698,34,19013,['CREDITCARD'],1587409260.0,2020-04-20 21:01:00,19013,4,4,30,30,1,1,1,1587408579,3,1
289,55664548,Charonne - Faubourg Saint-Antoine,48.85219190969573,2.3740932717919354,34,11004,['CREDITCARD'],1587409260.0,2020-04-20 21:01:00,11004,32,32,2,2,1,1,1,1587408686,31,1
290,214134714,Gare Arcueil - Cachan,48.799824,2.328171,26,42301,['CREDITCARD'],1587409260.0,2020-04-20 21:01:00,42301,11,11,15,15,1,1,1,1587408659,1,10
291,100859941,Raspail - Bac,48.855628721100935,2.3256602883338933,52,7005,['CREDITCARD'],1587409260.0,2020-04-20 21:01:00,7005,8,8,44,44,1,1,1,1587408657,6,2
292,214139374,Gare RER de Gentilly,48.814280450380224,2.3410347104072575,30,42504,,1587409260.0,2020-04-20 21:01:00,42504,5,5,25,25,1,1,1,1587408472,3,2
293,213702608,Boyer - Ménilmontant,48.86889516267913,2.3919824145634565,19,20121,,1587409260.0,2020-04-20 21:01:00,20121,4,4,15,15,1,1,1,1587408180,1,3
294,102335085,Aristide Briand - Place de la Résistance,48.82124248401006,2.2511002421379094,25,21302,['CREDITCARD'],1587409260.0,2020-04-20 21:01:00,21302,13,13,12,12,1,1,1,1587408553,4,9
295,559507144,Place Jean Ferrat,48.8184945213025,2.3744174838066106,25,42015,,1587409260.0,2020-04-20 21:01:00,42015,19,19,6,6,1,1,1,1587408356,10,9
296,213694069,Flandre - Alphonse Karr,48.89465,2.381868,26,19008,['CREDITCARD'],1587409260.0,2020-04-20 21:01:00,19008,7,7,19,19,1,1,1,1587408417,1,6
297,213700358,Villiers de l'Isle Adam - Pyrénées,48.867362,2.396222,20,20111,,1587409260.0,2020-04-20 21:01:00,20111,6,6,14,14,1,1,1,1587408627,0,6
298,653063170,Place de la Porte de Paris,48.93009363207303,2.3564037680625916,40,32016,['CREDITCARD'],1587409260.0,2020-04-20 21:01:00,32016,0,0,40,40,0,0,0,1556786265,0,0
299,468843711,Saint Georges - d'Aumale,48.87778639599673,2.337429821491241,23,9021,['CREDITCARD'],1587409260.0,2020-04-20 21:01:00,9021,2,2,21,21,1,1,1,1587408245,1,1
300,129151834,Stalingrad - Désiré Chevalier,48.85670169739857,2.445072233676911,42,31010,,1587409260.0,2020-04-20 21:01:00,31010,6,6,36,36,1,1,1,1587408648,3,3
301,82432573,Porte d'Ivry,48.82176874759649,2.3688706755638127,50,13041,,1587409260.0,2020-04-20 21:01:00,13041,4,4,46,46,1,1,1,1587408670,4,0
302,237041013,Saint-Jacques - Soufflot,48.8465255,2.343099,19,5006,['CREDITCARD'],1587409260.0,2020-04-20 21:01:00,5006,0,0,19,19,1,1,1,1587408694,0,0
303,653200142,Hôtel de Ville de Nanterre,48.892371898250424,2.205548956990242,38,92008,['CREDITCARD'],1587409260.0,2020-04-20 21:01:00,92008,14,14,24,24,1,1,1,1587408652,12,2
304,650091839,Victor Hugo - Ecoles,48.80476007936134,2.4180373930262093,25,41402,['CREDITCARD'],1587409260.0,2020-04-20 21:01:00,41402,17,17,8,8,1,1,1,1587408555,4,13
305,362869414,Hôpital Bégin,48.84571672113014,2.4272462725639348,26,43003,['CREDITCARD'],1587409260.0,2020-04-20 21:01:00,43003,3,3,23,23,1,1,1,1587408367,1,2
306,49859500,Charenton - Diderot,48.84617146118711,2.3793068155646324,18,12009,['CREDITCARD'],1587409260.0,2020-04-20 21:01:00,12009,6,6,12,12,1,1,1,1587408505,3,3
307,42743053,Stephenson - Doudeauville,48.888537048944826,2.3561610281467438,36,18012,['CREDITCARD'],1587409260.0,2020-04-20 21:01:00,18012,4,4,32,32,1,1,1,1587408565,3,1
308,49368561,Jules Ferry - Faubourg du Temple Paris,48.868397,2.3678933,58,11036,['CREDITCARD'],1587409260.0,2020-04-20 21:01:00,11036,41,41,17,17,1,1,1,1587408713,38,3
309,213699913,Place de l'Édit de Nantes,48.88879,2.3785,30,19125,['CREDITCARD'],1587409260.0,2020-04-20 21:01:00,19125,6,6,24,24,1,1,1,1587408661,2,4
310,378626842,Anatole France - Louise Michel,48.88873214926474,2.2881576418876652,50,23009,['CREDITCARD'],1587409260.0,2020-04-20 21:01:00,23009,18,18,32,32,1,1,1,1587408204,17,1
311,478952881,Boulets - Voltaire,48.85218705621031,2.389030158519745,24,11009,,1587409260.0,2020-04-20 21:01:00,11009,2,2,22,22,1,1,1,1587408446,1,1
312,933214552,Guynemer - Séverine ,48.83091743371036,2.2790706530213356,26,21313,['CREDITCARD'],1587409260.0,2020-04-20 21:01:00,21313,16,16,10,10,1,1,1,1587408591,11,5
313,210090269,Jean Macé - Faidherbe,48.85337548425958,2.3828620836138725,63,11007,['CREDITCARD'],1587409260.0,2020-04-20 21:01:00,11007,12,12,51,51,1,1,1,1587408717,9,3
314,376664868,Gaston Roussel - Commune de Paris,48.89432034553156,2.432552274419542,30,32303,['CREDITCARD'],1587409260.0,2020-04-20 21:01:00,32303,5,5,25,25,1,1,1,1587408644,2,3
315,250061205,Quai d'Orsay - Invalides,48.863096900140626,2.316989621020396,18,7112,['CREDITCARD'],1587409260.0,2020-04-20 21:01:00,7112,0,0,0,0,1,0,0,1583224717,0,0
316,205955605,Bienfaisance - Place de Narvik,48.87660163459077,2.3129771277308464,36,8035,,1587409260.0,2020-04-20 21:01:00,8035,13,13,23,23,1,1,1,1587408555,8,5
317,27414945,Montgallet - Charenton,48.84264777870052,2.386164927813738,16,12027,['CREDITCARD'],1587409260.0,2020-04-20 21:01:00,12027,10,10,6,6,1,1,1,1587408469,10,0
318,38263504,Place Jacques Madaule,48.8239337873086,2.2606918215751652,25,21305,,1587409260.0,2020-04-20 21:01:00,21305,3,3,22,22,1,1,1,1587408663,3,0
319,338824395,Bourse du Travail,48.868976638825686,2.362343855202198,17,10011,['CREDITCARD'],1587409260.0,2020-04-20 21:01:00,10011,2,2,15,15,1,1,1,1587408626,1,1
320,66491370,Jacques Callot - Mazarine,48.85528017533187,2.337574325501919,28,6013,['CREDITCARD'],1587409260.0,2020-04-20 21:01:00,6013,6,6,22,22,1,1,1,1587408400,1,5
321,66491392,Parmentier - Hôpital Saint-Louis,48.87137987425661,2.369896383666685,43,10113,['CREDITCARD'],1587409260.0,2020-04-20 21:01:00,10113,0,0,43,43,1,1,1,1587408669,0,0
322,353462947,Richard Wallace - Place du 8 Mai 1945,48.87866794788021,2.2420343756675725,30,28001,['CREDITCARD'],1587409260.0,2020-04-20 21:01:00,28001,16,16,14,14,1,1,1,1587408220,12,4
323,1559700274,Square Gilbert Thomain,48.90717373809284,2.2695400938391685,20,26007,,1587409260.0,2020-04-20 21:01:00,26007,7,7,13,13,1,1,1,1587408418,6,1
324,338762459,Edouard Poisson - Victor Hugo,48.91113914952997,2.3792722821235657,30,33018,['CREDITCARD'],1587409260.0,2020-04-20 21:01:00,33018,20,20,12,12,1,1,1,1587408660,12,8
325,213688824,Faustin Hélie - Desbordes-Valmore,48.859403,2.276522,33,16111,,1587409260.0,2020-04-20 21:01:00,16111,8,8,25,25,1,1,1,1587408703,7,1
326,82337423,Varenne,48.8572026618033,2.315277121961117,47,7015,['CREDITCARD'],1587409260.0,2020-04-20 21:01:00,7015,12,12,35,35,1,1,1,1587408663,9,3
327,27071684,Porte de Vincennes ,48.846454,2.415514,33,12115,,1587409260.0,2020-04-20 21:01:00,12115,3,3,29,29,1,1,1,1587408560,1,2
328,66491404,Flandre - Riquet,48.888013281448345,2.373759595522922,21,19005,['CREDITCARD'],1587409260.0,2020-04-20 21:01:00,19005,11,11,10,10,1,1,1,1587408665,6,5
329,652120758,Place de la Porte de Châtillon,48.8242469,2.3186306,59,14021,['CREDITCARD'],1587409260.0,2020-04-20 21:01:00,14021,6,6,53,53,1,1,1,1587408575,3,3
330,501318622,Montreuil - Gonnet,48.85050056492107,2.389085628786445,24,11115,,1587409260.0,2020-04-20 21:01:00,11115,9,9,14,14,1,1,1,1587408248,4,5
331,66491393,Dupleix - du Guesclin,48.85147910413369,2.296709530055523,47,15025,['CREDITCARD'],1587409260.0,2020-04-20 21:01:00,15025,27,27,20,20,1,1,1,1587408573,22,5
332,323486248,Montgallet - Reuilly,48.844291,2.3896481,16,12013,['CREDITCARD'],1587409260.0,2020-04-20 21:01:00,12013,7,7,9,9,1,1,1,1587408637,5,2
333,341388492,Place des Ternes,48.878438631226516,2.297727763652802,46,17045,['CREDITCARD'],1587409260.0,2020-04-20 21:01:00,17045,7,7,39,39,1,1,1,1587408525,4,3
334,1062223873,Ancien Canal - Hélène Brion,48.89484799296163,2.4188338592648506,23,35018,['CREDITCARD'],1587409260.0,2020-04-20 21:01:00,35018,9,9,14,14,1,1,1,1587408473,6,3
335,49085250,Departement - Pajol,48.886674849730184,2.3613611608743668,19,18110,,1587409260.0,2020-04-20 21:01:00,18110,4,4,15,15,1,1,1,1587408317,2,2
336,376526598,Mairie des Lilas,48.8792834,2.4160182,47,32602,['CREDITCARD'],1587409260.0,2020-04-20 21:01:00,32602,6,6,40,40,1,1,1,1587408611,1,5
337,15298647,Temple - Jean-Pierre Timbaud,48.864465972010244,2.3660597205162053,36,11040,,1587409260.0,2020-04-20 21:01:00,11040,17,17,19,19,1,1,1,1587408613,13,4
338,2515907297,Pasteur - Gambetta,48.84572797384512,2.4236011505126953,19,41606,['CREDITCARD'],1587409260.0,2020-04-20 21:01:00,41606,8,8,11,11,1,1,1,1587408706,6,2
339,66491401,Fragonard - Porte de Clichy,48.89415563341899,2.314389310777188,56,17011,,1587409260.0,2020-04-20 21:01:00,17011,13,13,43,43,1,1,1,1587408667,13,0
340,985828965,Place de Verdun,48.8202823,2.473775,40,43402,,1587409260.0,2020-04-20 21:01:00,43402,23,23,17,17,1,1,1,1587408609,16,7
341,54000597,Bayen - Pereire,48.881804409079656,2.2921088710427284,22,17037,['CREDITCARD'],1587409260.0,2020-04-20 21:01:00,17037,17,17,5,5,1,1,1,1587408308,13,4
342,570185777,Gare de Courbevoie,48.8993867,2.2506506,36,24002,['CREDITCARD'],1587409260.0,2020-04-20 21:01:00,24002,5,5,31,31,1,1,1,1587408675,4,1
343,470807791,Jardin d'Acclimatation,48.878772242510465,2.270772233605385,33,16121,['CREDITCARD'],1587409260.0,2020-04-20 21:01:00,16121,14,14,18,18,1,1,1,1587408483,11,3
344,82445192,Gare Montparnasse - René Mouchotte,48.83920384329242,2.320883944630623,39,14117,['CREDITCARD'],1587409260.0,2020-04-20 21:01:00,14117,7,7,32,32,1,1,1,1587408684,3,4
345,2515658032,Clignancourt - Sofia,48.88511992309783,2.34719488842051,19,18141,,1587409260.0,2020-04-20 21:01:00,18141,1,1,18,18,1,1,1,1587408258,0,1
346,568135465,Paul Vaillant Couturier - Chaptal,48.89347957618252,2.277525365352631,39,23001,['CREDITCARD'],1587409260.0,2020-04-20 21:01:00,23001,24,24,14,14,1,1,1,1587408592,23,1
347,567884788,Vincent Auriol - Louise Weiss,48.83400193550147,2.370388805866242,22,13049,,1587409260.0,2020-04-20 21:01:00,13049,7,7,15,15,1,1,1,1587408444,6,1
348,214102967,Gare de Laplace,48.80893199114179,2.3349460959434514,43,41102,['CREDITCARD'],1587409260.0,2020-04-20 21:01:00,41102,9,9,33,33,1,1,1,1587408578,6,3
349,82587428,Gambetta - Hôpital Tenon,48.867925154026736,2.400976623546542,35,20026,['CREDITCARD'],1587409260.0,2020-04-20 21:01:00,20026,0,0,35,35,1,1,1,1587408676,0,0
350,82417874,Alexandre Dumas - Voltaire,48.85288867036487,2.389147640809553,59,11102,,1587409260.0,2020-04-20 21:01:00,11102,18,18,35,35,1,1,1,1587408594,16,2
351,102319838,Quai de la Loire - Jean Jaurès,48.88339733854529,2.371074522980134,16,19004,['CREDITCARD'],1587409260.0,2020-04-20 21:01:00,19004,4,4,12,12,1,1,1,1587408600,2,2
352,82423726,Gare de Lyon - Roland Barthes,48.84395729494058,2.3790882155299187,68,12106,,1587409260.0,2020-04-20 21:01:00,12106,58,58,10,10,1,1,1,1587408685,53,5
353,652192395,Route de Sèvres - Porte de Bagatelle,48.87525984132485,2.249415814876557,66,16124,['CREDITCARD'],1587409260.0,2020-04-20 21:01:00,16124,16,16,50,50,1,1,1,1587408301,12,4
354,571923059,Bordier - Félix Faure,48.90390751882016,2.3830059170722966,48,33003,,1587409260.0,2020-04-20 21:01:00,33003,12,12,36,36,1,1,1,1587408656,8,4
355,66491405,Charonne - Avron,48.85160266522164,2.398403047037931,27,20043,['CREDITCARD'],1587409260.0,2020-04-20 21:01:00,20043,5,5,22,22,1,1,1,1587408682,2,3
356,54000635,Félix Faure - Sadi Carnot,48.90812110228388,2.378623187541962,33,33009,['CREDITCARD'],1587409260.0,2020-04-20 21:01:00,33009,14,14,20,20,1,1,1,1587408573,7,7
357,54000544,Jussieu - Fossés Saint-Bernard,48.84718551002347,2.3534858599305153,39,5021,['CREDITCARD'],1587409260.0,2020-04-20 21:01:00,5021,26,26,13,13,1,1,1,1587408574,18,8
358,1062179194,18 juin 1940 - Buzenval,48.868807,2.185428,25,25005,,1587409260.0,2020-04-20 21:01:00,25005,10,10,15,15,1,1,1,1587408628,4,6
359,2515403527,Saint-Cloud - Hippodrome,48.858340942100696,2.258151769638062,0,16138,,1587409260.0,2020-04-20 21:01:00,16138,0,0,0,0,0,0,0,1570697248,0,0
360,378648513,Jean Colly - Tolbiac,48.827817291597846,2.3705490678548813,36,13045,['CREDITCARD'],1587409260.0,2020-04-20 21:01:00,13045,22,22,14,14,1,1,1,1587408675,10,12
361,27278603,Porte de la Villette,48.89835196548483,2.386150136590004,27,19115,['CREDITCARD'],1587409260.0,2020-04-20 21:01:00,19115,4,4,23,23,1,1,1,1587408555,1,3
362,13497763,Ouest - Château ,48.83617286014242,2.319392143923804,23,14034,['CREDITCARD'],1587409260.0,2020-04-20 21:01:00,14034,8,8,15,15,1,1,1,1587408673,6,2
363,653042442,Place aux Étoiles,48.91835629408464,2.3523425683379173,40,32010,['CREDITCARD'],1587409260.0,2020-04-20 21:01:00,32010,9,9,31,31,1,1,1,1587408605,5,4
364,49807107,Flandrin - Henri Martin,48.8643275,2.2724174,18,16018,['CREDITCARD'],1587409260.0,2020-04-20 21:01:00,16018,2,2,16,16,1,1,1,1587408193,2,0
365,384370499,Place Charles Vallin,48.83552381204077,2.302598655223847,26,15122,,1587409260.0,2020-04-20 21:01:00,15122,22,22,4,4,1,1,1,1587408681,13,9
366,82450803,Square Cambronne,48.847566545259745,2.3025691509246826,59,15010,['CREDITCARD'],1587409260.0,2020-04-20 21:01:00,15010,46,46,12,12,1,1,1,1587408714,40,6
367,210747224,Pirogues de Bercy - Libourne,48.832308,2.38637,49,12034,['CREDITCARD'],1587409260.0,2020-04-20 21:01:00,12034,11,11,38,38,1,1,1,1587408715,10,1
368,210568512,Assemblée Nationale,48.86141101465194,2.320121418520769,63,7009,['CREDITCARD'],1587409260.0,2020-04-20 21:01:00,7009,23,23,40,40,1,1,1,1587408602,18,5
369,357409723,Place Violet,48.84487893836502,2.2905756533145905,30,15033,,1587409260.0,2020-04-20 21:01:00,15033,28,28,2,2,1,1,1,1587408661,25,3
370,1063017616,Mairie de La Garenne Colombes,48.906475,2.246955,22,22505,,1587409260.0,2020-04-20 21:01:00,22505,9,9,13,13,1,1,1,1587408467,5,4
371,49403716,Commandant Rivière,48.872933,2.309796,27,8033,['CREDITCARD'],1587409260.0,2020-04-20 21:01:00,8033,11,11,16,16,1,1,1,1587408684,10,1
372,85165045,Place Jean-Baptiste Clément,48.81240466867336,2.3617091774940495,25,42707,,1587409260.0,2020-04-20 21:01:00,42707,9,9,16,16,1,1,1,1587408652,4,5
373,27363103,Porte d'Auteuil,48.8479394142243,2.2608396783471107,33,16034,,1587409260.0,2020-04-20 21:01:00,16034,20,20,13,13,1,1,1,1587408710,14,6
374,27415179,Sarrette - Général Leclerc,48.82503085292528,2.326412869398186,22,14019,['CREDITCARD'],1587409260.0,2020-04-20 21:01:00,14019,12,12,10,10,1,1,1,1587408578,5,7
375,54000571,Dugommier,48.8388110488154,2.38965779542923,55,12029,['CREDITCARD'],1587409260.0,2020-04-20 21:01:00,12029,44,44,11,11,1,1,1,1587408702,35,9
376,85145704,Réunion - Avron,48.852566752033766,2.403928068708116,26,20132,,1587409260.0,2020-04-20 21:01:00,20132,3,3,23,23,1,1,1,1587408694,0,3
377,27363162,Ranelagh - Mozart,48.85545334552678,2.2701915353536606,23,16026,['CREDITCARD'],1587409260.0,2020-04-20 21:01:00,16026,11,11,12,12,1,1,1,1587408595,8,3
378,653044270,Claude Bernard - Arbalète,48.83976676978202,2.347510904073715,17,5114,,1587409260.0,2020-04-20 21:01:00,5114,8,8,9,9,1,1,1,1587408624,6,2
379,26958435,Square des Saint-Simoniens,48.8701796,2.3967273,25,20119,,1587409260.0,2020-04-20 21:01:00,20119,0,0,25,25,1,1,1,1587408309,0,0
380,6385,Petit - Manin,48.88650687534334,2.3938155401308374,22,19019,['CREDITCARD'],1587409260.0,2020-04-20 21:01:00,19019,9,9,13,13,1,1,1,1587408608,6,3
381,82550925,Place des Marseillais,48.82663907252554,2.4059280753135686,37,42207,['CREDITCARD'],1587409260.0,2020-04-20 21:01:00,42207,9,9,28,28,1,1,1,1587408411,4,5
382,27363096,Charenton - Wattignies,48.83667579640627,2.391795855555629,33,12030,,1587409260.0,2020-04-20 21:01:00,12030,21,21,12,12,1,1,1,1587408473,16,5
383,1062192012,Gare Rosny-Bois-Perrier,48.88115023337061,2.480436824262142,36,31103,['CREDITCARD'],1587409260.0,2020-04-20 21:01:00,31103,22,22,14,14,1,1,1,1587408686,4,18
384,475524450,Chanzy - Sud-Est,48.888912037698766,2.195632159709931,25,92003,,1587409260.0,2020-04-20 21:01:00,92003,11,11,14,14,1,1,1,1587408710,7,4
385,653048150,Jussieu - Guy de la Brosse,48.845665,2.355653,40,5119,,1587409260.0,2020-04-20 21:01:00,5119,2,2,38,38,1,1,1,1587408648,1,1
386,84986959,Bastille - Biscornet,48.851355779578945,2.369220033288002,62,12001,['CREDITCARD'],1587409260.0,2020-04-20 21:01:00,12001,39,39,23,23,1,1,1,1587408721,36,3
387,244400797,Jean Lolive - Parc Stalingrad,48.89206174403158,2.4091735482215886,23,35009,['CREDITCARD'],1587409260.0,2020-04-20 21:01:00,35009,4,4,19,19,1,1,1,1587408529,3,1
388,213922790,Champeaux - Gallieni,48.864459134684644,2.4161778017878532,50,31705,['CREDITCARD'],1587409260.0,2020-04-20 21:01:00,31705,5,5,45,45,1,1,1,1587408596,1,4
389,129001431,Courcelles - Place des Ternes,48.878199928923124,2.2992860188665043,31,8055,,1587409260.0,2020-04-20 21:01:00,8055,3,3,28,28,1,1,1,1587408493,2,1
390,394404659,Gare Saint-Lazare - Cour du Havre,48.87567440085132,2.3265598341822624,45,8002,['CREDITCARD'],1587409260.0,2020-04-20 21:01:00,8002,26,26,19,19,1,1,1,1587408690,17,9
391,473204291,Victor Hugo - Magasins Généraux,48.903281401126755,2.368072383105755,34,33001,,1587409260.0,2020-04-20 21:01:00,33001,14,14,20,20,1,1,1,1587408541,5,9
392,653203262,Parc Pierre Lagravère,48.92650488131725,2.239069678491417,30,27002,,1587409260.0,2020-04-20 21:01:00,27002,15,15,15,15,1,1,1,1587408167,12,3
393,406806401,Guichet - Jean Jaurès,48.905169868129036,2.3023840785026555,28,21109,,1587409260.0,2020-04-20 21:01:00,21109,15,15,13,13,1,1,1,1587408539,6,9
394,85143075,Evariste Galois,48.87308753734472,2.4133380129933357,30,20120,,1587409260.0,2020-04-20 21:01:00,20120,6,6,24,24,1,1,1,1587408713,1,5
395,1063035479,Parvis Robert Schuman - Roger Salengro,48.812657470558754,2.1921751275658607,24,23701,,1587409260.0,2020-04-20 21:01:00,23701,9,9,15,15,1,1,1,1587408300,7,2
396,82571110,Verdun - Place Henri IV,48.870797375639214,2.2277003154158592,26,21502,['CREDITCARD'],1587409260.0,2020-04-20 21:01:00,21502,6,6,20,20,1,1,1,1587408718,6,0
397,2515618216,Longchamp - Suresnes,48.86300828622305,2.240828142726961,0,16140,,1587409260.0,2020-04-20 21:01:00,16140,0,0,0,0,0,0,0,1570697841,0,0
398,27399735,Ernest Renan - Parc des Expositions,48.83089757010408,2.2853584215044975,50,15126,['CREDITCARD'],1587409260.0,2020-04-20 21:01:00,15126,25,25,25,25,1,1,1,1587408667,21,4
399,54000582,Edgar Quinet - Gaité,48.84116092896631,2.32459545135498,27,14001,['CREDITCARD'],1587409260.0,2020-04-20 21:01:00,14001,15,15,12,12,1,1,1,1587408523,8,7
400,217235307,Place Carnot,48.85593932186797,2.441531717777252,25,31012,['CREDITCARD'],1587409260.0,2020-04-20 21:01:00,31012,9,9,16,16,1,1,1,1587408442,3,6
401,210748575,Gravelle - Route du Bac,48.824407,2.418455,51,12126,['CREDITCARD'],1587409260.0,2020-04-20 21:01:00,12126,10,10,41,41,1,1,1,1587408701,8,2
402,218903767,René Boulanger - Lancry,48.8685433,2.3600032,62,10001,['CREDITCARD'],1587409260.0,2020-04-20 21:01:00,10001,29,29,33,33,1,1,1,1587408518,21,8
403,129086648,Ceinture du Lac Inferieure - Saint-Cloud,48.86218070933143,2.2617871686816216,42,16129,['CREDITCARD'],1587409260.0,2020-04-20 21:01:00,16129,7,7,35,35,1,1,1,1587408418,2,5
404,217572769,Anatole France - Jean Lolive,48.8949922,2.4253764,28,35019,['CREDITCARD'],1587409260.0,2020-04-20 21:01:00,35019,10,10,18,18,1,1,1,1587408401,5,5
405,214298601,Boyer-Barret - Raymond Losserand,48.83329880233322,2.3173383995890617,23,14104,['CREDITCARD'],1587409260.0,2020-04-20 21:01:00,14104,5,5,17,17,1,1,1,1587408307,3,2
406,129125489,Piat - Parc de Belleville,48.87195626635528,2.384981390278095,21,20113,,1587409260.0,2020-04-20 21:01:00,20113,3,3,18,18,1,1,1,1587408652,0,3
407,653046029,Place Valhubert,48.844182577315166,2.3640366643667217,37,5116,['CREDITCARD'],1587409260.0,2020-04-20 21:01:00,5116,21,21,16,16,1,1,1,1587408541,18,3
408,214122655,Lagny - Joffre,48.84930687084088,2.417949736118317,31,41604,,1587409260.0,2020-04-20 21:01:00,41604,11,11,20,20,1,1,1,1587408629,9,2
409,15461933,Parc Monceau,48.88107791412864,2.3095492646098137,18,17018,,1587409260.0,2020-04-20 21:01:00,17018,5,5,13,13,1,1,1,1587408460,2,3
410,43155320,Porte d'Orléans,48.8227639,2.3249313,48,14018,['CREDITCARD'],1587409260.0,2020-04-20 21:01:00,14018,8,8,39,39,1,1,1,1587408555,5,3
411,82458977,Place Falguière,48.83629973941847,2.3104464635252953,23,15017,,1587409260.0,2020-04-20 21:01:00,15017,8,8,15,15,1,1,1,1587408683,4,4
412,214146056,Vignerons - Minimes,48.841486,2.430793,29,43006,['CREDITCARD'],1587409260.0,2020-04-20 21:01:00,43006,8,8,21,21,1,1,1,1587408544,4,4
413,129077035,Emeriau - Place de Brazzaville,48.850785261674964,2.2871585190296173,51,15029,['CREDITCARD'],1587409260.0,2020-04-20 21:01:00,15029,5,5,45,45,1,1,1,1587408583,0,5
414,221047138,Pierre et Marie Curie - Julien Grimau,48.870714014863225,2.424097023904324,18,31702,,1587409260.0,2020-04-20 21:01:00,31702,5,5,13,13,1,1,1,1587408543,1,4
415,35196898,Gare d'Austerlitz - Quai Saint-Bernard,48.84369030863996,2.3657163977622986,27,13104,['CREDITCARD'],1587409260.0,2020-04-20 21:01:00,13104,24,24,3,3,1,1,1,1587408541,24,0
416,15308782,Sommerard - Saint-Jacques,48.850310432924466,2.345015835298588,34,5002,['CREDITCARD'],1587409260.0,2020-04-20 21:01:00,5002,21,21,13,13,1,1,1,1587408403,17,4
417,216473073,Tardieu - Chappe,48.88414675978186,2.3418454080820084,18,18005,,1587409260.0,2020-04-20 21:01:00,18005,1,1,17,17,1,1,1,1587408256,0,1
418,37521,Petites Ecuries - Faubourg Poissonnière,48.87397217237368,2.348388757504776,18,10005,,1587409260.0,2020-04-20 21:01:00,10005,8,8,10,10,1,1,1,1587408687,3,5
419,82421994,Gare de Bercy,48.839794573905685,2.382606603205204,35,12024,['CREDITCARD'],1587409260.0,2020-04-20 21:01:00,12024,24,24,11,11,1,1,1,1587408670,24,0
420,27033125,Pierre Ginier - Clichy,48.8867667,2.326228,16,18045,['CREDITCARD'],1587409260.0,2020-04-20 21:01:00,18045,7,7,9,9,1,1,1,1587408719,2,5
421,215495494,Batignolles - Place de Clichy,48.88347453575669,2.326493114233017,47,8012,['CREDITCARD'],1587409260.0,2020-04-20 21:01:00,8012,2,2,45,45,1,1,1,1587408445,0,2
422,129103849,Francoeur - Marcadet,48.89104123261663,2.340014585442034,20,18020,['CREDITCARD'],1587409260.0,2020-04-20 21:01:00,18020,7,7,13,13,1,1,1,1587408591,1,6
423,1057009034,Henri Chevreau - Couronnes,48.87033205312931,2.388777695596218,27,20136,['CREDITCARD'],1587409260.0,2020-04-20 21:01:00,20136,0,0,27,27,1,1,1,1587408660,0,0
424,82334007,Pascal - Claude Bernard,48.839061952159746,2.3499782010912895,49,5026,['CREDITCARD'],1587409260.0,2020-04-20 21:01:00,5026,45,45,4,4,1,1,1,1587408577,37,8
425,214123470, Place Léon Gambetta,48.81461250235386,2.4029293656349187,26,42023,['CREDITCARD'],1587409260.0,2020-04-20 21:01:00,42023,19,19,7,7,1,1,1,1587408675,11,8
426,2515976231,Université,48.901365,2.212693,20,92004,['CREDITCARD'],1587409260.0,2020-04-20 21:01:00,92004,8,8,12,12,1,1,1,1587408501,4,4
427,216039437,Lamennais - Washington ,48.87352990026496,2.303444892168045,26,8102,,1587409260.0,2020-04-20 21:01:00,8102,11,11,15,15,1,1,1,1587408631,8,3
428,213686196,Lauriston - Copernic,48.86926,2.289918,19,16006,,1587409260.0,2020-04-20 21:01:00,16006,4,4,15,15,1,1,1,1587408277,2,2
429,129130397,Pierre Grenier - Pont de Billancourt,48.8258020742942,2.2487989068031315,21,21013,,1587409260.0,2020-04-20 21:01:00,21013,17,17,4,4,1,1,1,1587408370,8,9
430,653046369,Carrefour Pleyel,48.92034156960326,2.3438543826341625,36,32012,['CREDITCARD'],1587409260.0,2020-04-20 21:01:00,32012,12,12,24,24,1,1,1,1587408271,1,11
431,54000634,Bineau - Louise Michel,48.88666162206972,2.2843274474143986,25,23011,,1587409260.0,2020-04-20 21:01:00,23011,13,13,12,12,1,1,1,1587408724,10,3
432,419381597,Professeur René Leriche - Général Leclerc ,48.90782845483013,2.307887971401215,50,21111,['CREDITCARD'],1587409260.0,2020-04-20 21:01:00,21111,5,5,45,45,1,1,1,1587408697,4,1
433,434419150,Bara - Henri Farman,48.833218027457846,2.2677567601203923,36,21308,,1587409260.0,2020-04-20 21:01:00,21308,16,16,20,20,1,1,1,1587408632,12,4
434,54000548,Quai Voltaire,48.85894298617901,2.331418204714572,32,7006,['CREDITCARD'],1587409260.0,2020-04-20 21:01:00,7006,22,22,9,9,1,1,1,1587408676,19,3
435,54000595,Navier - Epinettes,48.89587780769155,2.3226776719093327,36,17007,['CREDITCARD'],1587409260.0,2020-04-20 21:01:00,17007,11,11,25,25,1,1,1,1587408561,8,3
436,426772876,Ledru-Rollin - Charonne,48.85345855607243,2.3772463581947094,32,11114,,1587409260.0,2020-04-20 21:01:00,11114,14,14,18,18,1,1,1,1587408583,11,3
437,74620630,Parc de Belleville - Julien Lacroix,48.8703459,2.3842214,26,20040,,1587409260.0,2020-04-20 21:01:00,20040,6,6,20,20,1,1,1,1587408513,2,4
438,653129412,Vladimir Ilitch Lénine - Andrée Chedid,48.813199499999044,2.3321458697319035,31,42503,['CREDITCARD'],1587409260.0,2020-04-20 21:01:00,42503,7,7,24,24,1,1,1,1587408554,1,6
439,129095489,Batignolles - Abel Truchet,48.88310390458221,2.323834749088381,28,17050,['CREDITCARD'],1587409260.0,2020-04-20 21:01:00,17050,8,8,21,21,1,1,1,1587408520,7,1
440,82421013,Charenton - Place du Col Bourgoin,48.84486731955409,2.382578935054453,35,12011,['CREDITCARD'],1587409260.0,2020-04-20 21:01:00,12011,25,25,11,11,1,1,1,1587408594,22,3
441,213676825,Pitié-Salpêtrière,48.837208062341794,2.3646864295005803,51,13102,,1587409260.0,2020-04-20 21:01:00,13102,2,2,49,49,1,1,1,1587408661,2,0
442,129134084,Morice - Général Leclerc,48.90245471981591,2.3128929734230046,25,21105,,1587409260.0,2020-04-20 21:01:00,21105,5,5,19,19,1,1,1,1587408651,1,4
443,427678168,Lucien Sampaix - Récollets,48.874330377560476,2.3621229082345963,46,10015,['CREDITCARD'],1587409260.0,2020-04-20 21:01:00,10015,21,21,24,24,1,1,1,1587408676,20,1
444,129036192,Gare de l'Est - Verdun,48.87615605427147,2.360914908320552,14,10023,,1587409260.0,2020-04-20 21:01:00,10023,14,14,0,0,1,1,1,1587408617,10,4
445,210754072,Place Jean Delay,48.823316,2.354336,35,13026,,1587409260.0,2020-04-20 21:01:00,13026,12,12,22,22,1,1,1,1587408442,9,3
446,419991048,Pont de Levallois-bécon ,48.8984179,2.2791311,50,23002,['CREDITCARD'],1587409260.0,2020-04-20 21:01:00,23002,2,2,48,48,1,1,1,1587408378,1,1
447,2820744873,Pierre Larousse - Raymond Losserand,48.83059564231877,2.3119183257222176,30,14139,['CREDITCARD'],1587409260.0,2020-04-20 21:01:00,14139,2,2,28,28,1,1,1,1587408130,2,0
448,15299574,Charles Delescluze,48.85242200848887,2.380632497370243,49,11101,,1587409260.0,2020-04-20 21:01:00,11101,6,6,43,43,1,1,1,1587408717,4,2
449,41566122,Vasco de Gama,48.83671783466264,2.283664085650799,54,15055,,1587409260.0,2020-04-20 21:01:00,15055,22,22,32,32,1,1,1,1587408512,15,7
450,963786819,Jonquoy - Didot,48.82890454823947,2.31648076325655,31,14130,,1587409260.0,2020-04-20 21:01:00,14130,7,7,24,24,1,1,1,1587408713,3,4
451,976762284,Place du Général de Gaulle,48.8525288,2.4877332,28,41207,['CREDITCARD'],1587409260.0,2020-04-20 21:01:00,41207,6,6,22,22,1,1,1,1587408613,2,4
452,129091653,Gare de Pont-Cardinet,48.88713901475306,2.314494143994255,34,17017,['CREDITCARD'],1587409260.0,2020-04-20 21:01:00,17017,4,4,30,30,1,1,1,1587408489,4,0
453,224598098,Dunois - Clisson,48.832294,2.3674523,51,13043,['CREDITCARD'],1587409260.0,2020-04-20 21:01:00,13043,13,13,38,38,1,1,1,1587408393,8,5
454,252339799,Edouard Vaillant - Paul-Adolphe Souriau,48.83484585882868,2.2479459643363957,28,21019,,1587409260.0,2020-04-20 21:01:00,21019,11,11,16,16,1,1,1,1587408713,11,0
455,224589573,Michelet - Assas,48.84274150283194,2.335021197795868,18,6018,,1587409260.0,2020-04-20 21:01:00,6018,4,4,14,14,1,1,1,1587408680,4,0
456,220502135,Porte Dorée,48.8354337,2.4077132,36,12032,['CREDITCARD'],1587409260.0,2020-04-20 21:01:00,12032,15,15,21,21,1,1,1,1587408691,14,1
457,1805401614,Sèvres-Gallieni,48.83780940895712,2.2281519323587418,27,21032,,1587409260.0,2020-04-20 21:01:00,21032,6,6,21,21,1,1,1,1587408496,5,1
458,129114993,Belleville - Porte des Lilas,48.87660391892763,2.404769691129476,32,19037,,1587409260.0,2020-04-20 21:01:00,19037,2,2,30,30,1,1,1,1587408620,1,1
459,129124069,Haxo - Surmelin,48.8694370761222,2.40539657537972,21,20109,,1587409260.0,2020-04-20 21:01:00,20109,3,3,18,18,1,1,1,1587408655,0,3
460,221041655,Porte de Clignancourt,48.897488,2.343996,56,18032,['CREDITCARD'],1587409260.0,2020-04-20 21:01:00,18032,6,6,50,50,1,1,1,1587408590,2,4
461,129061615,Primo Levi - Frigos,48.83094844846017,2.37965351592796,34,13016,['CREDITCARD'],1587409260.0,2020-04-20 21:01:00,13016,18,18,17,17,1,1,1,1587408410,17,1
462,221094844,Place Alphonse Deville,48.85018826266191,2.3275961726903915,23,6107,,1587409260.0,2020-04-20 21:01:00,6107,9,9,14,14,1,1,1,1587408696,6,3
463,220726050,Mézières - Rennes ,48.85023459321703,2.3303819820284843,55,6103,['CREDITCARD'],1587409260.0,2020-04-20 21:01:00,6103,12,12,43,43,1,1,1,1587408230,12,0
464,254224239,Place Adolphe Cherioux - Vaugirard,48.83959442800459,2.3010657727718353,63,15038,['CREDITCARD'],1587409260.0,2020-04-20 21:01:00,15038,16,16,47,47,1,1,1,1587408671,12,4
465,252301607,Charles de Gaulle - Madrid,48.884432270367995,2.2608044743537907,22,22005,['CREDITCARD'],1587409260.0,2020-04-20 21:01:00,22005,9,9,13,13,1,1,1,1587408656,3,6
466,129116697,Tanger - Place du Maroc,48.8862524447104,2.3689296841621403,19,19109,,1587409260.0,2020-04-20 21:01:00,19109,5,5,14,14,1,1,1,1587408657,3,2
467,129119449,Ménilmontant - Pelleport,48.87068263384462,2.398959602331646,19,20036,,1587409260.0,2020-04-20 21:01:00,20036,1,1,18,18,1,1,1,1587408271,0,1
468,977409509,Vincennes - Douy-Delcupe,48.85493692155721,2.436049282550812,38,31019,,1587409260.0,2020-04-20 21:01:00,31019,7,7,31,31,1,1,1,1587408147,1,6
469,653055049,Place du Cornillon - Stade de France,48.92540695835961,2.3644426837563515,34,32014,['CREDITCARD'],1587409260.0,2020-04-20 21:01:00,32014,8,8,26,26,1,1,1,1587408673,7,1
470,43165673,Belfort - Voltaire,48.8563358,2.3829901,39,11020,['CREDITCARD'],1587409260.0,2020-04-20 21:01:00,11020,9,9,30,30,1,1,1,1587408538,6,3
471,1057769632,Porte de Saint-Ouen - Henri Huchard,48.898708366365064,2.3295360803604126,26,17124,,1587409260.0,2020-04-20 21:01:00,17124,1,1,25,25,1,1,1,1587408661,0,1
472,1333959209,Génie - Mozart,48.794902381218904,2.3734183609485626,19,44012,,1587409260.0,2020-04-20 21:01:00,44012,17,17,2,2,1,1,1,1587408546,6,11
473,213690256,Place du Maréchal Juin - Péreire,48.885263,2.298286,46,17027,['CREDITCARD'],1587409260.0,2020-04-20 21:01:00,17027,6,6,40,40,1,1,1,1587408490,4,2
474,476183970,Gare de l'Est - Place du 11 Novembre 1918,48.876327,2.3585464,40,10165,['CREDITCARD'],1587409260.0,2020-04-20 21:01:00,10165,15,15,26,26,1,1,1,1587408614,10,5
475,977206088,Hôtel de Ville d'Argenteuil,48.946504,2.2496396,30,51003,['CREDITCARD'],1587409260.0,2020-04-20 21:01:00,51003,25,25,6,6,1,1,1,1587408673,10,15
476,213868408,Gare Routière de Saint Cloud,48.84288183896324,2.222245037555695,31,22101,['CREDITCARD'],1587409260.0,2020-04-20 21:01:00,22101,25,25,6,6,1,1,1,1587408600,24,1
477,82328045,Victoria - Place du Chatelet,48.85799259152685,2.3469167947769165,22,1002,['CREDITCARD'],1587409260.0,2020-04-20 21:01:00,1002,16,16,6,6,1,1,1,1587408708,14,2
478,76199110,Université Paris Dauphine,48.870707839985386,2.2748656198382378,70,16004,['CREDITCARD'],1587409260.0,2020-04-20 21:01:00,16004,14,14,56,56,1,1,1,1587408492,10,4
479,10968855,Colonel Monteil - Brune,48.8265029331101,2.30927479982717,19,14122,,1587409260.0,2020-04-20 21:01:00,14122,5,5,13,13,1,1,1,1587408204,1,4
480,82508970,Verdun - Adrien Damalix,48.8222334178559,2.4215328320860863,26,44102,['CREDITCARD'],1587409260.0,2020-04-20 21:01:00,44102,6,6,20,20,1,1,1,1587408445,5,1
481,653055097,Milton - Manuel,48.878249,2.341181,22,9115,,1587409260.0,2020-04-20 21:01:00,9115,5,5,17,17,1,1,1,1587408507,4,1
482,27246227,Edouard Pailleron - Simon Bolivar ,48.87979886049996,2.374839261174202,24,19039,,1587409260.0,2020-04-20 21:01:00,19039,5,5,19,19,1,1,1,1587408377,2,3
483,63297,Eglise d'Auteuil,48.84749841771691,2.26848387135299,21,16032,,1587409260.0,2020-04-20 21:01:00,16032,9,9,12,12,1,1,1,1587408290,6,3
484,213692714,Lepic - Armée d'Orient,48.88753640381415,2.334307730197907,24,18113,,1587409260.0,2020-04-20 21:01:00,18113,5,5,19,19,1,1,1,1587408465,2,3
485,95927849,Jean Jaurès - Jean Baptiste Clément ,48.84576261454011,2.2369650006294255,24,21003,['CREDITCARD'],1587409260.0,2020-04-20 21:01:00,21003,11,11,13,13,1,1,1,1587408523,10,1
486,102341385,Château - Bineau,48.890404028589806,2.270106375217438,23,22001,['CREDITCARD'],1587409260.0,2020-04-20 21:01:00,22001,6,6,17,17,1,1,1,1587408522,4,2
487,27415327,Courcelles - Pierre Demours,48.883769733273496,2.29858466343129,26,17047,['CREDITCARD'],1587409260.0,2020-04-20 21:01:00,17047,6,6,20,20,1,1,1,1587408050,6,0
488,54000605,Mairie du 18ème,48.892939296937605,2.3445510864257812,40,18025,['CREDITCARD'],1587409260.0,2020-04-20 21:01:00,18025,9,9,31,31,1,1,1,1587408354,1,8
489,979059925,Bridaine - Lamandé,48.8862074,2.3206239,29,17122,,1587409260.0,2020-04-20 21:01:00,17122,4,4,25,25,1,1,1,1587408679,3,1
490,6512,Porte de Ménilmontant,48.8691543609174,2.40932246879487,15,20027,,1587409260.0,2020-04-20 21:01:00,20027,2,2,13,13,1,1,1,1587408131,0,2
491,27363323,Laffitte - Italiens,48.871815737396304,2.337201547845077,33,9023,,1587409260.0,2020-04-20 21:01:00,9023,6,6,27,27,1,1,1,1587408588,6,0
492,82584215,Place Lafayette,48.829654975522296,2.263867557048798,62,21306,['CREDITCARD'],1587409260.0,2020-04-20 21:01:00,21306,6,6,56,56,1,1,1,1587408646,6,0
493,85118872,Indre - Prairies,48.86254398506782,2.403290458023548,38,20021,,1587409260.0,2020-04-20 21:01:00,20021,8,8,30,30,1,1,1,1587408382,1,7
494,253357936,Félix Faure - Lourmel,48.83868901709515,2.2818081825971603,58,15032,['CREDITCARD'],1587409260.0,2020-04-20 21:01:00,15032,25,25,33,33,1,1,1,1587408720,24,1
495,102289046,Lourmel - Marie Skobtsov,48.844974,2.287283,22,15108,,1587409260.0,2020-04-20 21:01:00,15108,19,19,3,3,1,1,1,1587408542,16,3
496,124402232,Belleville - Télégraphe,48.8756045,2.3995549,41,19040,,1587409260.0,2020-04-20 21:01:00,19040,4,4,17,17,1,1,1,1587408706,0,4
497,985086307,Gare d'Asnières sur Seine,48.90636459217474,2.2835066914558415,24,26001,['CREDITCARD'],1587409260.0,2020-04-20 21:01:00,26001,8,8,16,16,1,1,1,1587408609,4,4
498,984663789,Faubourg St-Antoine - Place de la Nation,48.8487659,2.3940436,37,11116,['CREDITCARD'],1587409260.0,2020-04-20 21:01:00,11116,3,3,34,34,1,1,1,1587408257,1,2
499,100798076,Danton - Serpente,48.85229736258167,2.3414132371544834,22,6016,['CREDITCARD'],1587409260.0,2020-04-20 21:01:00,6016,18,18,4,4,1,1,1,1587408720,17,1
500,2515829865,Basilique,48.93626891059109,2.3588666820200914,0,32017,,1587409260.0,2020-04-20 21:01:00,32017,0,0,0,0,0,0,0,1570698757,0,0
501,221038698,Mahatma Gandhi,48.876356,2.264205,26,16123,,1587409260.0,2020-04-20 21:01:00,16123,9,9,17,17,1,1,1,1587408718,8,1
502,1063404053,République - Danton,48.85249172181667,2.462034523487091,20,41204,,1587409260.0,2020-04-20 21:01:00,41204,6,6,14,14,1,1,1,1587408704,1,5
503,82577019,Cité des Sciences et de l'Industrie,48.89659571178903,2.384599149227142,30,19009,['CREDITCARD'],1587409260.0,2020-04-20 21:01:00,19009,9,9,21,21,1,1,1,1587408698,1,8
504,54000598,Mac-Mahon - Brey,48.877532084130166,2.294512536052928,25,17046,['CREDITCARD'],1587409260.0,2020-04-20 21:01:00,17046,11,11,14,14,1,1,1,1587408648,7,4
505,2515636592,Clichy - Lechapelais,48.89939206706263,2.3319420218467712,0,17123,,1587409260.0,2020-04-20 21:01:00,17123,0,0,0,0,0,0,0,1570697919,0,0
506,989753852,Square des Epinettes,48.89383909781389,2.325953990221024,20,17121,,1587409260.0,2020-04-20 21:01:00,17121,8,8,12,12,1,1,1,1587408458,3,5
507,990000217,Les Planètes ,48.8099849920804,2.4580853059887886,16,47006,,1587409260.0,2020-04-20 21:01:00,47006,3,3,13,13,1,1,1,1587408212,2,1
508,121025345,Chabrol - d'Hauteville,48.87701838803332,2.3513179644942284,11,10020,,1587409260.0,2020-04-20 21:01:00,10020,3,3,8,8,1,1,1,1587408664,2,1
509,66491394,Square Saint-Ambroise,48.860934,2.375841,43,11041,['CREDITCARD'],1587409260.0,2020-04-20 21:01:00,11041,31,31,11,11,1,1,1,1587408718,30,1
510,27363137,Hameau Fleuri - Marché,48.831448892608314,2.2412404417991643,22,21014,,1587409260.0,2020-04-20 21:01:00,21014,13,13,9,9,1,1,1,1587408542,9,4
511,39256416,Pajol - Riquet ,48.88960028134536,2.3628534749150276,47,18109,['CREDITCARD'],1587409260.0,2020-04-20 21:01:00,18109,3,3,44,44,1,1,1,1587390609,2,1
512,255207155,Lassus - Delouvain,48.87550448459959,2.3890327325518528,20,19038,,1587409260.0,2020-04-20 21:01:00,19038,3,3,17,17,1,1,1,1587408703,0,3
513,63769334,Emile Blemont - Poteau,48.8943782,2.3415122,39,18029,['CREDITCARD'],1587409260.0,2020-04-20 21:01:00,18029,8,8,31,31,1,1,1,1587408678,2,6
514,129136818,Square du Carrefour de l'Insurrection,48.820864559770676,2.291113436222077,23,21703,,1587409260.0,2020-04-20 21:01:00,21703,6,6,17,17,1,1,1,1587408615,2,4
515,98132679, Jean Bleuzen - Square du 11 Novembre,48.8232579,2.2965213,49,21706,['CREDITCARD'],1587409260.0,2020-04-20 21:01:00,21706,4,4,45,45,1,1,1,1587408437,0,4
516,27415469,Orteaux - Mouraud,48.85558642847872,2.408762907764669,24,20118,,1587409260.0,2020-04-20 21:01:00,20118,5,5,19,19,1,1,1,1587408551,2,3
517,39599631,François Ponsard - La Muette ,48.8583666,2.2744515,23,16021,['CREDITCARD'],1587409260.0,2020-04-20 21:01:00,16021,8,8,15,15,1,1,1,1587408558,6,2
518,84979504,Provence - Chaussée d'Antin,48.87428447542072,2.332976511564311,25,9031,['CREDITCARD'],1587409260.0,2020-04-20 21:01:00,9031,7,7,18,18,1,1,1,1587408585,6,1
519,82404497,Ledru-Rollin - Place du Père Chaillet,48.856433706943704,2.379020587761426,37,11006,['CREDITCARD'],1587409260.0,2020-04-20 21:01:00,11006,36,36,2,2,1,1,1,1587408633,26,10
520,37936869,Assas - Vaugirard,48.848274111397586,2.3292413726449013,35,6030,,1587409260.0,2020-04-20 21:01:00,6030,4,4,31,31,1,1,1,1587408696,4,0
521,85120104,Pelleport - Belgrand,48.86500081847653,2.403980836377493,15,20023,,1587409260.0,2020-04-20 21:01:00,20023,4,4,11,11,1,1,1,1587408199,0,4
522,54000604,Ordener - Poissonniers,48.891213890844654,2.351288666219873,35,18023,['CREDITCARD'],1587409260.0,2020-04-20 21:01:00,18023,4,4,31,31,1,1,1,1587408627,0,4
523,101748685,Place Etienne Pernet,48.84243457133779,2.2921819612383847,43,15035,['CREDITCARD'],1587409260.0,2020-04-20 21:01:00,15035,26,26,17,17,1,1,1,1587408591,20,6
524,3230175424,Place de la République,48.852988,2.42467,28,31027,['CREDITCARD'],1587409260.0,2020-04-20 21:01:00,31027,7,7,21,21,1,1,1,1587408142,4,3
525,54000608,Porte d'Aubervilliers,48.89859661942376,2.3689722642302513,55,18049,,1587409260.0,2020-04-20 21:01:00,18049,24,24,32,32,1,1,1,1587408650,11,13
526,653080986,Toffier Decaux - Cartier Bresson,48.90165072551549,2.4017545580863957,15,35017,,1587409260.0,2020-04-20 21:01:00,35017,12,12,3,3,1,1,1,1587408682,1,11
527,102743096,Sadi Carnot - François Mitterrand ,48.87532687671517,2.4241617321968083,27,31703,,1587409260.0,2020-04-20 21:01:00,31703,4,4,23,23,1,1,1,1587408243,0,4
528,653059015,Bellefond - Maubeuge,48.878255397644715,2.345264218747616,31,9117,['CREDITCARD'],1587409260.0,2020-04-20 21:01:00,9117,7,7,24,24,1,1,1,1587408581,4,3
529,126175087,Gabrielle Josserand - Edouard Vaillant,48.90271566255436,2.3933270573616032,25,35003,['CREDITCARD'],1587409260.0,2020-04-20 21:01:00,35003,10,10,15,15,1,1,1,1587408522,7,3
530,101746493,Théâtre - Lourmel,48.8482070397636,2.2898658737540245,53,15031,['CREDITCARD'],1587409260.0,2020-04-20 21:01:00,15031,29,29,24,24,1,1,1,1587408609,25,4
531,339797666,Charles de Gaulle - Jean Lolive,48.8932644350857,2.4126765131950383,26,35014,,1587409260.0,2020-04-20 21:01:00,35014,6,6,20,20,1,1,1,1587408682,3,3
532,1968156458,Ecole Vétérinaire,48.81488859822486,2.4224362157778994,36,47005,['CREDITCARD'],1587409260.0,2020-04-20 21:01:00,47005,15,15,21,21,1,1,1,1587408675,12,3
533,255212362,Porte de Versailles,48.83215381734912,2.2871491312980647,24,15049,['CREDITCARD'],1587409260.0,2020-04-20 21:01:00,15049,18,18,6,6,1,1,1,1587408698,15,3
534,991351798,Aubervilliers - Curial,48.89088305227546,2.3688579350709915,23,19127,['CREDITCARD'],1587409260.0,2020-04-20 21:01:00,19127,8,8,15,15,1,1,1,1587408645,1,7
535,7304,Bassano -  Iéna,48.868144510482075,2.296149600985935,15,16015,,1587409260.0,2020-04-20 21:01:00,16015,5,5,10,10,1,1,1,1587408396,3,2
536,54000592,Balard - Montagne de la Fage,48.83850740333351,2.2782871127128606,36,15070,,1587409260.0,2020-04-20 21:01:00,15070,2,2,34,34,1,1,1,1587408430,1,1
537,54000553,Marignan - Champs-Elysées,48.869495661232406,2.306613813900307,35,8013,['CREDITCARD'],1587409260.0,2020-04-20 21:01:00,8013,5,5,15,15,1,1,1,1587408526,1,4
538,15409531,Méchain - Faubourg Saint-Jacques,48.83586772099485,2.33798034198275,16,14112,,1587409260.0,2020-04-20 21:01:00,14112,0,0,16,16,1,1,1,1587408137,0,0
539,29327,Stade Auguste Delaune,48.80896378683884,2.4345204234123234,21,47004,['CREDITCARD'],1587409260.0,2020-04-20 21:01:00,47004,14,14,7,7,1,1,1,1587408373,9,5
540,125469898,Square Léon,48.88667396788626,2.353205569088459,33,18008,,1587409260.0,2020-04-20 21:01:00,18008,6,6,27,27,1,1,1,1587408658,5,1
541,36298,Jean-Baptiste Pigalle - La Bruyere,48.87939826447722,2.333709173337285,17,9026,['CREDITCARD'],1587409260.0,2020-04-20 21:01:00,9026,13,13,4,4,1,1,1,1587408422,9,4
542,37903195,Transvaal - Charles de Gaulle ,48.848280403628806,2.2373420120857195,27,21001,['CREDITCARD'],1587409260.0,2020-04-20 21:01:00,21001,6,6,21,21,1,1,1,1587408615,4,2
543,102313219,Belliard - Damrémont,48.89669238777841,2.338023450388167,34,18033,['CREDITCARD'],1587409260.0,2020-04-20 21:01:00,18033,8,8,26,26,1,1,1,1587408653,5,3
544,54000572,Diderot - Pierre Bourdan,48.84764862079675,2.3902582749724393,21,12107,,1587409260.0,2020-04-20 21:01:00,12107,13,13,8,8,1,1,1,1587408568,11,2
545,15387809,Mozart - Jasmin,48.85286124871689,2.268483570651513,62,16027,['CREDITCARD'],1587409260.0,2020-04-20 21:01:00,16027,15,15,47,47,1,1,1,1587408507,8,7
546,100906707,Boulets - Faubourg Saint-Antoine,48.84925926211519,2.391754614194301,43,11010,,1587409260.0,2020-04-20 21:01:00,11010,6,6,37,37,1,1,1,1587408606,1,5
547,66491407,Haies - Réunion,48.85386896766491,2.402426162238911,22,20116,,1587409260.0,2020-04-20 21:01:00,20116,3,3,19,19,1,1,1,1587408628,1,2
548,27369223,Maine - Antoine Bourdelle,48.84308531746595,2.320263946784738,17,15002,['CREDITCARD'],1587409260.0,2020-04-20 21:01:00,15002,12,12,5,5,1,1,1,1587408626,8,4
549,102336814,Kléber - Gouverneur Général Eboué,48.826885843069796,2.2723413258790965,24,21310,,1587409260.0,2020-04-20 21:01:00,21310,21,21,2,2,1,1,1,1587408710,17,4
550,484423835,Président Wilson - Jean Jaures,48.89034054052266,2.2920683026313786,27,23007,,1587409260.0,2020-04-20 21:01:00,23007,13,13,14,14,1,1,1,1587408663,11,2
551,54000618,Pyrénées - Maraîchers,48.85714001395299,2.4043509364128113,19,20016,['CREDITCARD'],1587409260.0,2020-04-20 21:01:00,20016,1,1,18,18,1,1,1,1587408495,1,0
552,653059879,Gare RER de Saint-Denis,48.93554324248177,2.3471488058567047,40,32015,['CREDITCARD'],1587409260.0,2020-04-20 21:01:00,32015,36,36,4,4,1,1,1,1587408655,4,32
553,653050378,Square René Viviani - Montebello,48.851904891406384,2.347842156887055,34,5121,['CREDITCARD'],1587409260.0,2020-04-20 21:01:00,5121,20,20,13,13,1,1,1,1587408687,15,5
554,84966359,Naples - Rome,48.879960700846226,2.321358695626259,26,8019,['CREDITCARD'],1587409260.0,2020-04-20 21:01:00,8019,5,5,21,21,1,1,1,1587408436,5,0
555,15291968,Place de Passy,48.85780291711202,2.277500546942199,15,16043,,1587409260.0,2020-04-20 21:01:00,16043,5,5,10,10,1,1,1,1587408610,2,3
556,210583589,Place Jacques Bonsergent,48.870948218595146,2.3612049221992497,33,10010,['CREDITCARD'],1587409260.0,2020-04-20 21:01:00,10010,28,28,5,5,1,1,1,1587408667,23,5
557,100918666,Place Pasdeloup,48.86265421563133,2.3670325062844237,21,11043,['CREDITCARD'],1587409260.0,2020-04-20 21:01:00,11043,8,8,13,13,1,1,1,1587408309,7,1
558,1002059045,Pont Neuf - Rivoli,48.86008989261731,2.344057559967041,27,1117,['CREDITCARD'],1587409260.0,2020-04-20 21:01:00,1117,16,16,11,11,1,1,1,1587408679,15,1
559,1002738770,Lavandieres Sainte Opportune - Rivoli,48.85927970247607,2.3466217517852783,27,1120,,1587409260.0,2020-04-20 21:01:00,1120,8,8,19,19,1,1,1,1587408236,4,4
560,100863462,Musée d'Orsay,48.85972615790874,2.325860448181629,65,7007,['CREDITCARD'],1587409260.0,2020-04-20 21:01:00,7007,42,42,23,23,1,1,1,1587408698,38,4
561,126354477,Clichy - Place Blanche,48.883601088297006,2.333223782479763,20,18043,['CREDITCARD'],1587409260.0,2020-04-20 21:01:00,18043,2,2,18,18,1,1,1,1587408241,0,2
562,213987795,Wilson - Landy,48.91516726221354,2.357633225619793,40,32004,,1587409260.0,2020-04-20 21:01:00,32004,13,13,27,27,1,1,1,1587408594,3,10
563,15397468,Maison de Radio - France,48.85132886434057,2.277785539627075,47,16029,['CREDITCARD'],1587409260.0,2020-04-20 21:01:00,16029,13,13,34,34,1,1,1,1587408500,6,7
564,129101773,Caulaincourt - Place Constantin Pecqueur,48.8896779050281,2.33817871442611,44,18017,['CREDITCARD'],1587409260.0,2020-04-20 21:01:00,18017,6,6,38,38,1,1,1,1587408396,1,5
565,37647,Gare du Nord - Dunkerque,48.88042350842878,2.3527636751532555,29,10028,['CREDITCARD'],1587409260.0,2020-04-20 21:01:00,10028,2,2,27,27,1,1,1,1587408531,0,2
566,42908639,Lallier - Trudaine ,48.88109246617963,2.3408224806189537,29,9017,['CREDITCARD'],1587409260.0,2020-04-20 21:01:00,9017,4,4,25,25,1,1,1,1587408532,2,2
567,6298,Gare du Nord - Saint-Vincent de Paul,48.88095574164779,2.352430514838522,24,10033,,1587409260.0,2020-04-20 21:01:00,10033,1,1,23,23,1,1,1,1587408531,0,1
568,37920,Traversière - Ledru-Rollin,48.850735824128805,2.375870111706245,34,12004,['CREDITCARD'],1587409260.0,2020-04-20 21:01:00,12004,32,32,1,1,1,1,1,1587408703,25,7
569,213952930,Proudhon - Président Wilson,48.90644276349534,2.3584905266761784,30,32001,,1587409260.0,2020-04-20 21:01:00,32001,14,14,16,16,1,1,1,1587408677,2,12
570,100855693,Sabot - Rennes,48.852575112948415,2.331552766263485,26,6032,['CREDITCARD'],1587409260.0,2020-04-20 21:01:00,6032,9,9,12,12,1,1,1,1587408664,7,2
571,85162552,Fontainebleau - Edmond Michelet,48.80956436844049,2.3626908659935,45,42703,['CREDITCARD'],1587409260.0,2020-04-20 21:01:00,42703,5,5,40,40,1,1,1,1587408649,1,4
572,52329,Chernoviz - Raynouard,48.8569864146289,2.282173218142987,37,16112,,1587409260.0,2020-04-20 21:01:00,16112,9,9,28,28,1,1,1,1587408457,4,5
573,256561528,Eugène Oudiné - Dessous Des Berges,48.8256423,2.3750226,44,13046,,1587409260.0,2020-04-20 21:01:00,13046,12,12,31,31,1,1,1,1587408540,8,4
574,452920451,Mont Valérien - Michel Salles,48.8561915,2.2152966,24,22102,['CREDITCARD'],1587409260.0,2020-04-20 21:01:00,22102,12,12,12,12,1,1,1,1587408684,8,4
575,2515738489,Eugène Reisz - Davout,48.85652582256903,2.4105313382660665,0,20201,,1587409260.0,2020-04-20 21:01:00,20201,0,0,0,0,0,0,0,1570698370,0,0
576,82381710,Batignolles - Rome,48.881823370566806,2.3202589899301524,15,8051,,1587409260.0,2020-04-20 21:01:00,8051,1,1,14,14,1,1,1,1587408526,1,0
577,1020700136,Neuve Saint-Pierre - Beautreillis,48.85355351439652,2.3639122769236565,20,4110,,1587409260.0,2020-04-20 21:01:00,4110,4,4,16,16,1,1,1,1587408633,4,0
578,39217683,Alfred Roll - Berthier,48.88780857052871,2.30009529817631,34,17102,,1587409260.0,2020-04-20 21:01:00,17102,10,10,25,25,1,1,1,1587408257,7,3
579,54000586,Pernety - Raymond Losserand,48.83425462795304,2.317609339386963,32,14030,['CREDITCARD'],1587409260.0,2020-04-20 21:01:00,14030,6,6,26,26,1,1,1,1587408125,2,4
580,102304517,Pereire - Place de Wagram,48.887070607581215,2.304111124531457,46,17022,['CREDITCARD'],1587409260.0,2020-04-20 21:01:00,17022,14,14,32,32,1,1,1,1587408516,7,7
581,42499285,Petit Palais,48.8667692,2.3157655,43,8001,['CREDITCARD'],1587409260.0,2020-04-20 21:01:00,8001,17,17,26,26,1,1,1,1587408715,14,3
582,88235134,Alésia - Suisses,48.831682520717614,2.3149869226003754,47,14028,['CREDITCARD'],1587409260.0,2020-04-20 21:01:00,14028,3,3,44,44,1,1,1,1587408614,1,2
583,54000546,Sénat - Condé,48.84954227788459,2.337939441204071,33,6017,['CREDITCARD'],1587409260.0,2020-04-20 21:01:00,6017,8,8,25,25,1,1,1,1587408576,7,1
584,129042700,Granges aux Belles - Hôpital Saint-Louis,48.874794994841274,2.366669436984963,60,10114,['CREDITCARD'],1587409260.0,2020-04-20 21:01:00,10114,10,10,50,50,1,1,1,1587408709,7,3
585,101761298,Place du Moulin de Javel,48.84021670922037,2.2716060653328896,45,15058,,1587409260.0,2020-04-20 21:01:00,15058,16,16,29,29,1,1,1,1587408373,12,4
586,27364581,Parc de Choisy,48.828156251574946,2.358513532903332,25,13122,,1587409260.0,2020-04-20 21:01:00,13122,11,11,14,14,1,1,1,1587408602,7,4
587,210737808,Aqueduc - Villette,48.883886063895396,2.36719880331497,28,10036,,1587409260.0,2020-04-20 21:01:00,10036,7,7,21,21,1,1,1,1587408530,3,4
588,256124192,Belleville - Pyrénées,48.8741908,2.3860039,42,19041,,1587409260.0,2020-04-20 21:01:00,19041,2,2,40,40,1,1,1,1587408691,1,1
589,54000549,Villersexel - Saint-Germain,48.858297001217615,2.323793470859528,16,7008,,1587409260.0,2020-04-20 21:01:00,7008,6,6,10,10,1,1,1,1587408304,6,0
590,653127524,Gustave Eiffel - Parc des Impressionnistes,48.90390619651018,2.2946908324956894,30,21114,['CREDITCARD'],1587409260.0,2020-04-20 21:01:00,21114,8,8,22,22,1,1,1,1587408678,4,4
591,2515686699,Borrégo - Gambetta,48.87330497045532,2.4014145880937576,25,20137,['CREDITCARD'],1587409260.0,2020-04-20 21:01:00,20137,2,2,23,23,1,1,1,1587408644,0,2
592,54000588,Gare Montparnasse - Vaugirard,48.8418071798797,2.31951002690117,66,15003,,1587409260.0,2020-04-20 21:01:00,15003,0,0,66,66,1,0,0,1587408549,0,0
593,912377361,Diderot - Reuilly,48.84720845606067,2.3861273378133774,44,12161,['CREDITCARD'],1587409260.0,2020-04-20 21:01:00,12161,37,37,6,6,1,1,1,1587408723,33,4
594,35137730,Hôpital Pitié Salpêtrière,48.8377016,2.3604946,50,13103,['CREDITCARD'],1587409260.0,2020-04-20 21:01:00,13103,13,13,37,37,1,1,1,1587408699,8,5
595,259977414,Palais des Sports,48.83346851742578,2.2858720645308495,22,15107,['CREDITCARD'],1587409260.0,2020-04-20 21:01:00,15107,14,14,8,8,1,1,1,1587408660,14,0
596,54000621,Ménilmontant - Père Lachaise,48.86328729150227,2.3869940266013145,56,20030,['CREDITCARD'],1587409260.0,2020-04-20 21:01:00,20030,7,7,49,49,1,1,1,1587408564,1,6
597,66491408,Calmette,48.88104925098552,2.424993216991425,32,32603,,1587409260.0,2020-04-20 21:01:00,32603,3,3,28,28,1,1,1,1587408606,0,3
598,1021176825,Billancourt - Général Leclerc ,48.8322649,2.2380413,22,21024,['CREDITCARD'],1587409260.0,2020-04-20 21:01:00,21024,3,3,19,19,1,1,1,1587408608,3,0
599,54000611,Manin - Simon Bolivar,48.87649965412676,2.379407362599104,26,19023,['CREDITCARD'],1587409260.0,2020-04-20 21:01:00,19023,4,4,22,22,1,1,1,1587408588,2,2
600,66505511,François 1er - Montaigne,48.866887649978096,2.306675575720671,29,8038,['CREDITCARD'],1587409260.0,2020-04-20 21:01:00,8038,11,11,18,18,1,1,1,1587408526,9,2
601,315525484,Berges de Seine - Musée d'Orsay,48.8627885936562,2.3064593598246574,16,7113,['CREDITCARD'],1587409260.0,2020-04-20 21:01:00,7113,0,0,16,16,1,0,0,1583345999,0,0
602,36151,Favart - Italiens,48.87144635392104,2.338290105850787,17,2013,,1587409260.0,2020-04-20 21:01:00,2013,11,11,6,6,1,1,1,1587408629,9,2
603,213848056,Parvis Corentin Celton,48.82747252522725,2.2784319519996648,55,21311,['CREDITCARD'],1587409260.0,2020-04-20 21:01:00,21311,21,21,34,34,1,1,1,1587408557,13,8
604,54000545,Parc André Citroën,48.840639944296655,2.2780618071556096,65,15059,['CREDITCARD'],1587409260.0,2020-04-20 21:01:00,15059,50,50,13,13,1,1,1,1587408650,47,3
605,1396728955,Bastille - Beaumarchais,48.85383346385182,2.3685702681541443,23,4101,['CREDITCARD'],1587409260.0,2020-04-20 21:01:00,4101,14,14,9,9,1,1,1,1587408474,9,5
606,120827885,Messine - Place Du Pérou,48.875448033960744,2.315508019010038,12,8026,['CREDITCARD'],1587409260.0,2020-04-20 21:01:00,8026,8,8,4,4,1,1,1,1587408346,7,1
607,452936197,Bois de Vincennes,48.8338064,2.4132221,60,12041,['CREDITCARD'],1587409260.0,2020-04-20 21:01:00,12041,21,21,39,39,1,1,1,1587408430,14,7
608,66491386,Surcouf - Université,48.861273016278126,2.309453550914185,58,7016,['CREDITCARD'],1587409260.0,2020-04-20 21:01:00,7016,37,37,21,21,1,1,1,1587408651,30,7
609,1023083417,Ney - Charles Hermite,48.89874803977525,2.3645754531025887,20,18138,['CREDITCARD'],1587409260.0,2020-04-20 21:01:00,18138,11,11,9,9,1,1,1,1587408265,8,3
610,1021553839,Faubourg Poissonniere - Delta,48.882555807626765,2.3497482016682625,36,9118,['CREDITCARD'],1587409260.0,2020-04-20 21:01:00,9118,5,5,31,31,1,1,1,1587408651,0,5
611,101751231,Saint-Amand - Labrouste,48.834097274832295,2.3087677359581,36,15040,['CREDITCARD'],1587409260.0,2020-04-20 21:01:00,15040,12,12,24,24,1,1,1,1587408647,4,8
612,484387018,Place du Maquis du Vercors,48.877321579493575,2.4083782732486725,31,20019,['CREDITCARD'],1587409260.0,2020-04-20 21:01:00,20019,4,4,27,27,1,1,1,1587408201,0,4
613,335780498,Greneta - Sebastopol,48.86524233322809,2.3516669869422917,30,2001,['CREDITCARD'],1587409260.0,2020-04-20 21:01:00,2001,29,29,1,1,1,1,1,1587408505,21,8
614,2515855808,Madeleine Vionnet,48.902824799622955,2.3741612835201447,0,33019,,1587409260.0,2020-04-20 21:01:00,33019,0,0,0,0,0,0,0,1570698862,0,0
615,82568336,Jeanne Hornet - Girardot,48.873802681432146,2.427820265293122,29,31704,,1587409260.0,2020-04-20 21:01:00,31704,6,6,23,23,1,1,1,1587408513,2,4
616,1025995767,Hôtel de Ville de Champigny sur Marne,48.81381062840488,2.5096759200096135,21,45001,,1587409260.0,2020-04-20 21:01:00,45001,9,9,12,12,1,1,1,1587408490,8,1
617,54000466,Uzès - Montmartre,48.870790980240706,2.3431010171771054,29,2010,['CREDITCARD'],1587409260.0,2020-04-20 21:01:00,2010,5,5,24,24,1,1,1,1587408515,3,2
618,100872260,Duroc - Place de Breteuil,48.84746064114221,2.3126140236854558,42,7013,,1587409260.0,2020-04-20 21:01:00,7013,14,14,28,28,1,1,1,1587408600,8,6
619,54000541,Vieille du Temple - Francs Bourgeois,48.858256413365815,2.35821794718504,29,4013,['CREDITCARD'],1587409260.0,2020-04-20 21:01:00,4013,9,9,20,20,1,1,1,1587408449,5,4
620,653065577,Gare du Nord - Demarquay,48.881154,2.358411,30,10163,['CREDITCARD'],1587409260.0,2020-04-20 21:01:00,10163,1,1,29,29,1,1,1,1587408277,0,1
621,1034242363,Place François Mitterand,48.86492782016328,2.442958317697048,34,31023,['CREDITCARD'],1587409260.0,2020-04-20 21:01:00,31023,5,5,29,29,1,1,1,1587408214,2,3
